STATION	NAME	LAT	LON	HGT	JAN	FEB	MAR	APR	MAY	JUN	JUL	AUG	SEP	OKT	NOV	DEZ	YEAR
1	"Aach                                    "	47.841299	8.849299	478.000000	51.100000	45.000000	45.900000	54.000000	79.300000	96.900000	87.600000	94.700000	58.100000	50.100000	63.500000	51.800000	777.900000
2	"Aachen (Kl_ranlage)                     "	50.806581	6.099638	138.000000	61.900000	52.300000	61.100000	56.300000	72.200000	78.600000	77.400000	72.200000	53.700000	58.700000	67.700000	75.400000	787.500000
3	"Aachen                                  "	50.782659	6.094087	202.000000	62.200000	56.600000	66.400000	63.200000	74.900000	82.200000	79.800000	75.800000	59.200000	63.000000	71.900000	73.100000	828.300000
4	"Aachen-Brand                            "	50.768313	6.120705	243.000000	68.700000	63.900000	70.200000	67.700000	78.500000	91.700000	78.300000	74.400000	59.100000	61.300000	77.100000	82.000000	872.800000
7	"Aalen-Unterkochen                       "	48.813993	10.128509	473.000000	72.400000	62.700000	65.900000	77.100000	94.000000	110.000000	84.300000	86.300000	63.800000	62.900000	75.900000	75.500000	930.700000
8	"Aarbergen-Panrod                        "	50.254621	8.130986	307.000000	46.400000	40.800000	45.600000	47.300000	65.700000	72.300000	63.800000	63.800000	44.800000	51.300000	56.500000	54.700000	652.900000
10	"Abbach,Bad-D_nzling                     "	48.885697	12.107925	378.000000	49.900000	45.200000	44.900000	46.400000	60.800000	84.300000	73.200000	78.300000	52.100000	47.200000	53.600000	55.500000	691.300000
12	"Abbensen                                "	52.381385	10.185956	61.000000	49.500000	38.900000	46.100000	46.400000	62.100000	77.700000	64.000000	62.500000	49.900000	39.800000	50.100000	57.500000	644.600000
15	"Abenberg                                "	49.234630	10.966755	390.000000	46.000000	40.500000	47.200000	52.900000	71.900000	78.900000	66.300000	65.200000	51.500000	45.900000	45.800000	51.900000	664.000000
16	"Abenberg-Wassermungenau                 "	49.219251	10.884495	370.000000	52.200000	46.100000	49.000000	56.300000	70.000000	80.200000	65.000000	64.700000	49.200000	47.200000	51.000000	58.500000	689.400000
17	"Abensberg-Sandharlanden                 "	48.842100	11.819366	380.000000	53.000000	44.500000	43.200000	48.700000	74.500000	95.000000	74.400000	80.600000	60.200000	51.600000	56.500000	57.800000	740.100000
19	"Abtsgm_nd-Neubronn                      "	48.879484	9.970959	471.000000	64.300000	58.200000	57.900000	63.800000	82.800000	94.600000	74.100000	83.700000	57.000000	56.400000	66.200000	68.600000	827.600000
20	"Abtsgm_nd-Untergr_ningen                "	48.921959	9.912869	432.000000	80.100000	66.400000	70.400000	66.500000	88.400000	103.200000	80.600000	95.400000	63.600000	64.000000	76.700000	81.200000	936.600000
21	"Achberg-Doberatsweiler                  "	47.610529	9.698282	498.000000	84.800000	75.600000	77.300000	110.700000	136.600000	159.400000	145.600000	160.000000	121.000000	85.800000	96.400000	86.700000	1339.900000
22	"Achern-Fautenbach                       "	48.631737	8.046643	138.000000	68.600000	63.600000	68.600000	75.500000	104.900000	114.200000	90.000000	93.300000	79.100000	69.300000	84.200000	78.500000	989.900000
23	"Achim-Embsen                            "	53.031114	9.023290	8.000000	59.500000	40.400000	50.800000	48.500000	65.100000	72.200000	74.300000	73.700000	59.900000	53.300000	63.200000	63.600000	724.400000
25	"Adelberg                                "	48.766700	9.600000	474.000000	79.400000	64.500000	74.700000	84.500000	107.300000	122.600000	97.200000	99.700000	75.800000	71.200000	85.400000	82.700000	1045.000000
26	"Adelheidsdorf                           "	52.550265	10.054374	41.000000	55.600000	43.700000	46.000000	47.400000	57.800000	77.500000	75.600000	66.600000	52.700000	44.700000	55.900000	62.500000	685.900000
27	"Adelholzen, Bad                         "	47.816700	12.616700	657.000000	108.700000	96.100000	113.700000	133.200000	166.500000	211.300000	199.000000	198.200000	127.700000	100.400000	121.500000	118.200000	1694.600000
28	"Adelmannsfelden                         "	48.953977	10.006025	470.000000	72.900000	67.500000	67.300000	70.600000	87.900000	103.700000	80.900000	95.600000	59.600000	64.400000	75.100000	82.000000	927.500000
29	"Adelsdorf (Kl_ranlage)                  "	49.717494	10.910084	260.000000	48.000000	41.800000	51.100000	48.300000	63.700000	79.500000	66.200000	59.900000	51.200000	49.300000	51.200000	59.300000	669.300000
30	"Adelsheim                               "	49.406422	9.391409	260.000000	72.800000	61.700000	66.400000	55.900000	67.700000	80.500000	68.000000	65.400000	53.100000	63.100000	70.900000	84.000000	809.400000
31	"Adendorf                                "	53.283300	10.433300	25.000000	55.400000	37.100000	49.600000	47.000000	62.100000	63.900000	67.800000	67.600000	56.100000	47.100000	56.500000	58.400000	668.600000
32	"Adenstedt                               "	52.000000	9.933300	194.000000	63.500000	43.900000	57.800000	61.200000	72.000000	73.300000	66.700000	67.100000	51.200000	47.500000	58.900000	75.700000	738.800000
33	"Aderstedt                               "	52.028630	10.999436	93.000000	34.800000	30.800000	38.700000	42.600000	48.500000	66.200000	46.800000	61.300000	36.100000	31.500000	39.400000	44.400000	521.300000
35	"Adorf                                   "	50.311960	12.287506	480.000000	51.100000	47.900000	50.200000	54.100000	72.200000	82.300000	67.900000	87.200000	52.500000	47.400000	48.900000	57.200000	718.900000
36	"Aerzen-Reher                            "	52.030821	9.235006	115.000000	89.800000	64.600000	81.100000	70.600000	80.500000	96.200000	91.600000	90.300000	76.000000	66.200000	89.100000	106.400000	1002.400000
37	"Affing                                  "	48.461238	10.979492	470.000000	39.900000	40.200000	38.900000	57.800000	83.000000	108.300000	92.800000	88.400000	63.600000	47.600000	53.100000	44.500000	758.000000
38	"Ahaus (Wieselweg)                       "	52.090009	7.009547	52.000000	75.500000	52.200000	66.800000	56.300000	65.300000	75.500000	74.700000	72.900000	69.400000	60.300000	78.100000	85.700000	832.800000
40	"Ahlbeck                                 "	53.667369	14.182304	5.000000	42.500000	30.600000	40.800000	42.900000	51.700000	60.300000	61.400000	61.600000	48.500000	39.700000	51.600000	53.200000	584.700000
41	"Ahlden-Grethem                          "	52.735555	9.566144	25.000000	54.400000	39.600000	45.400000	42.200000	57.500000	67.700000	62.500000	70.300000	50.600000	44.700000	57.800000	61.500000	654.100000
42	"Ahlen in Westfalen                      "	51.773647	7.873816	70.000000	63.000000	48.500000	61.300000	52.900000	67.900000	73.000000	70.100000	67.700000	64.800000	50.100000	67.000000	75.200000	761.400000
43	"Ahlen (Falkenberger Moor)               "	53.700000	8.783300	3.000000	65.500000	43.400000	57.200000	52.000000	57.900000	70.500000	83.300000	76.800000	79.800000	74.500000	85.000000	73.900000	819.900000
44	"Gro_enkneten                            "	52.933597	8.237038	43.500000	60.000000	41.200000	54.600000	52.000000	58.700000	67.300000	68.400000	69.900000	54.100000	56.200000	65.000000	66.500000	713.900000
45	"Ahnatal-Weimar                          "	51.373997	9.404187	298.000000	51.100000	45.000000	47.800000	52.400000	66.500000	76.500000	65.100000	58.500000	52.600000	47.400000	56.600000	60.700000	680.200000
46	"Aholfing                                "	48.945049	12.463897	325.000000	53.900000	46.100000	43.200000	39.700000	61.800000	73.100000	72.800000	73.100000	53.500000	46.500000	54.000000	60.800000	678.300000
47	"Ahorn-Eubigheim                         "	49.499712	9.543886	338.000000	55.800000	49.400000	56.000000	52.100000	61.700000	77.100000	73.400000	65.800000	51.900000	57.400000	62.300000	69.500000	732.500000
48	"Ahorntal-Kirchahorn                     "	49.836384	11.402511	410.000000	58.100000	43.600000	54.700000	55.500000	58.400000	83.400000	66.600000	59.200000	56.800000	51.500000	58.400000	68.400000	714.600000
51	"Ahrensb_k                               "	54.016700	10.566700	60.000000	64.700000	42.800000	53.000000	48.900000	50.200000	64.300000	78.400000	68.200000	65.900000	59.100000	74.900000	68.200000	738.600000
52	"Ahrensburg-Wulfsdorf                    "	53.662339	10.199036	46.000000	63.800000	43.700000	58.600000	51.900000	59.600000	73.000000	75.800000	76.500000	73.100000	67.000000	73.200000	75.400000	791.500000
53	"Ahrensfelde                             "	52.585015	13.563378	60.000000	42.500000	36.000000	37.600000	41.600000	57.200000	71.600000	51.800000	62.200000	47.500000	35.700000	49.800000	54.000000	587.400000
54	"Ahrensh_ft                              "	54.566700	9.066700	5.000000	67.200000	35.600000	47.500000	48.300000	55.900000	66.800000	77.800000	79.700000	79.800000	88.700000	99.200000	77.300000	823.800000
55	"Aibling, Bad-Ellmosen                   "	47.878011	12.023853	509.000000	58.200000	51.500000	58.600000	79.900000	119.700000	150.100000	131.800000	143.900000	93.800000	65.300000	71.000000	65.800000	1089.500000
56	"Aichach                                 "	48.450000	11.133300	444.000000	69.100000	53.600000	56.100000	68.900000	94.300000	119.500000	94.500000	111.400000	63.200000	54.700000	67.400000	64.200000	916.900000
57	"Hollenbach/Bayern-Sch_nbach             "	48.479836	11.051981	457.000000	48.500000	48.700000	47.200000	65.300000	91.100000	108.700000	97.800000	93.400000	68.700000	55.300000	62.700000	55.600000	843.100000
59	"Aiglsbach                               "	48.692916	11.702185	405.000000	50.900000	47.200000	48.200000	53.900000	77.800000	97.400000	85.600000	86.100000	63.300000	54.200000	58.700000	56.000000	779.300000
60	"Aislingen                               "	48.503230	10.459065	460.000000	49.600000	50.300000	47.100000	63.000000	84.100000	94.300000	84.800000	89.900000	70.700000	52.200000	60.300000	55.200000	801.400000
62	"Aitern-Untermulten                      "	47.819099	7.856938	1018.000000	169.900000	139.600000	168.400000	155.800000	168.300000	166.200000	134.800000	143.500000	126.800000	138.000000	183.600000	179.100000	1873.900000
63	"Aitrang                                 "	47.817209	10.537362	747.000000	86.800000	77.200000	81.600000	99.500000	113.800000	152.000000	135.500000	152.100000	100.200000	72.500000	91.900000	94.200000	1257.300000
64	"Aken/Elbe                               "	51.850555	12.048192	55.000000	31.600000	29.100000	34.900000	40.000000	47.600000	60.700000	48.400000	60.700000	40.500000	35.400000	38.400000	42.700000	510.000000
65	"Albaching                               "	48.109386	12.104938	513.000000	66.900000	59.500000	63.100000	78.800000	107.500000	129.900000	117.600000	121.400000	82.600000	63.200000	75.700000	72.700000	1039.000000
66	"Albersdorf                              "	54.150000	9.283300	40.000000	72.200000	46.900000	61.100000	57.100000	59.100000	80.200000	91.500000	86.900000	93.000000	91.500000	98.600000	91.500000	929.600000
67	"Albersrieth                             "	49.666700	12.300000	511.000000	56.900000	48.700000	55.600000	51.000000	65.700000	82.200000	78.000000	71.900000	65.100000	54.100000	55.800000	70.100000	755.200000
68	"Albrechtshain                           "	51.301525	12.569212	128.000000	35.500000	33.700000	37.200000	51.900000	53.000000	73.900000	55.100000	64.200000	44.700000	39.600000	43.900000	44.600000	577.300000
69	"Albstadt-Burgfelden                     "	48.241254	8.932884	911.000000	68.200000	65.000000	67.700000	92.200000	112.000000	125.900000	100.200000	106.500000	69.500000	66.800000	74.100000	72.200000	1020.000000
70	"Albstadt-Ebingen                        "	48.205158	9.037070	712.000000	62.100000	57.600000	56.300000	74.500000	94.500000	111.600000	92.600000	89.800000	61.600000	55.500000	66.700000	65.100000	887.800000
71	"Albstadt-Badkap                         "	48.215550	8.978387	759.000000	61.900000	55.500000	65.800000	80.200000	99.100000	111.900000	98.400000	77.900000	57.900000	67.400000	67.000000	69.800000	912.800000
72	"Albstadt-Onstmettingen                  "	48.276550	9.000074	794.000000	69.000000	71.600000	78.900000	96.800000	110.900000	133.000000	96.000000	109.400000	70.900000	67.000000	79.000000	75.200000	1057.800000
73	"Aldersbach-Kriestorf                    "	48.615935	13.050595	340.000000	56.000000	49.400000	52.900000	54.600000	80.200000	94.400000	91.300000	92.700000	57.400000	51.000000	58.900000	64.200000	803.000000
75	"Alfdorf                                 "	48.841188	9.726666	486.000000	91.700000	70.100000	74.800000	80.100000	96.400000	111.100000	89.300000	106.800000	70.200000	73.700000	90.500000	89.200000	1043.900000
77	"Alfeld/Leine                            "	51.991728	9.819417	90.000000	58.500000	45.500000	52.700000	56.900000	70.300000	75.300000	68.500000	67.000000	52.200000	46.000000	58.300000	68.800000	720.100000
78	"Alfhausen                               "	52.485314	7.912553	65.000000	64.400000	46.100000	56.500000	53.400000	60.300000	74.000000	68.500000	69.100000	58.900000	56.100000	67.300000	72.700000	747.400000
79	"Alfter-Volmershoven                     "	50.671796	7.015528	160.000000	44.900000	37.800000	51.100000	50.000000	62.800000	69.000000	68.100000	66.600000	56.300000	45.000000	54.200000	52.300000	657.900000
80	"Alheim-Heinebach                        "	51.051835	9.661652	195.000000	45.300000	36.800000	47.500000	52.900000	67.500000	77.200000	70.200000	64.200000	51.600000	48.700000	55.100000	54.900000	672.100000
81	"Allendorf/Eder-Osterfeld                "	51.059031	8.652103	378.000000	88.800000	62.500000	74.100000	56.800000	66.100000	75.000000	72.200000	65.700000	61.000000	66.300000	88.800000	98.800000	876.000000
82	"Allerdorf                               "	53.033300	9.183300	18.000000	62.400000	44.200000	53.500000	47.400000	64.500000	71.000000	68.500000	75.500000	59.200000	55.700000	62.600000	69.300000	733.900000
83	"Alleringersleben                        "	52.213010	11.141411	135.000000	44.300000	35.500000	41.200000	44.100000	52.000000	62.200000	51.700000	59.900000	40.200000	37.200000	44.800000	51.200000	564.300000
84	"Allersberg                              "	49.250650	11.243043	385.000000	51.500000	46.000000	50.400000	55.800000	75.900000	91.900000	79.400000	79.000000	58.300000	49.500000	53.300000	60.100000	750.900000
85	"Allrode                                 "	51.676471	10.969446	458.000000	59.200000	53.800000	59.700000	53.400000	66.500000	73.400000	54.900000	64.300000	47.500000	44.600000	63.100000	69.100000	709.500000
86	"Allstedt                                "	51.399805	11.388888	140.000000	28.000000	27.700000	32.600000	38.900000	54.000000	59.400000	51.100000	55.800000	39.400000	30.900000	34.300000	35.700000	487.800000
87	"Alperstedt                              "	51.095024	11.047932	158.000000	23.300000	22.400000	28.100000	39.400000	52.300000	64.400000	45.400000	55.100000	34.400000	28.700000	30.000000	29.400000	453.000000
89	"Alsenz                                  "	49.716700	7.816700	146.000000	41.400000	41.500000	44.300000	38.500000	58.500000	69.500000	61.200000	62.500000	43.600000	44.500000	53.100000	47.500000	606.100000
91	"Alsfeld-Eifa                            "	50.744591	9.344972	300.000000	42.500000	38.500000	47.400000	50.700000	63.600000	73.800000	63.800000	59.700000	51.000000	51.300000	53.600000	55.800000	651.500000
92	"Alsfeld-Lingelbach                      "	50.763767	9.403094	395.000000	48.200000	44.800000	52.700000	56.400000	72.500000	79.400000	64.100000	60.400000	51.700000	52.300000	58.200000	62.100000	702.700000
93	"Alsfeld-Reibertenrod                    "	50.769066	9.254216	269.000000	41.100000	38.500000	47.800000	46.800000	60.100000	68.600000	57.900000	58.200000	45.800000	46.500000	51.200000	53.900000	616.400000
94	"Alt Krenzlin-Krenzliner H_tte           "	53.309586	11.313265	52.000000	49.900000	36.700000	43.400000	46.900000	51.200000	66.900000	64.000000	62.000000	49.500000	40.400000	52.800000	56.200000	619.900000
95	"Alt Madlitz                             "	52.378017	14.231734	62.000000	37.400000	35.400000	34.900000	40.100000	60.900000	63.800000	52.900000	57.200000	43.400000	38.100000	46.500000	49.700000	560.200000
96	"Neuruppin-Alt Ruppin                    "	52.943711	12.851826	49.800000	46.600000	34.900000	38.000000	43.100000	55.900000	67.400000	54.000000	53.600000	45.700000	40.500000	51.900000	53.700000	585.500000
97	"Alt Zeschdorf                           "	52.427514	14.442000	50.000000	30.500000	27.000000	34.500000	38.600000	58.600000	67.900000	53.900000	61.000000	42.600000	36.300000	42.000000	39.800000	532.700000
99	"Altbrandsleben                          "	52.072827	11.247498	185.000000	41.400000	37.000000	42.300000	44.800000	50.400000	62.800000	49.100000	58.400000	39.400000	36.300000	43.300000	50.500000	555.600000
100	"Altd_bern                               "	51.650398	14.031784	85.000000	39.300000	30.600000	33.400000	42.100000	52.300000	64.200000	50.800000	61.000000	46.700000	39.700000	43.100000	49.900000	553.000000
101	"Altdorf                                 "	49.386435	11.370522	423.000000	68.500000	58.200000	61.100000	63.300000	79.900000	94.300000	89.200000	78.700000	62.900000	58.500000	62.100000	75.100000	851.900000
103	"Hagelstadt                              "	48.895974	12.216967	364.000000	47.700000	43.000000	43.600000	45.900000	65.000000	80.800000	80.800000	80.100000	51.200000	43.900000	50.200000	53.600000	686.100000
104	"Altena in Westfalen                     "	51.285602	7.692246	196.000000	114.800000	83.400000	101.000000	84.100000	87.600000	105.700000	110.200000	90.000000	88.700000	85.500000	109.500000	125.900000	1186.300000
105	"Ahrbr_ck                                "	50.484485	6.971023	195.000000	48.900000	43.000000	49.600000	52.900000	67.200000	66.800000	69.300000	64.500000	51.500000	45.200000	56.400000	52.800000	668.100000
106	"Altenau                                 "	51.797554	10.442925	500.000000	114.300000	85.300000	105.000000	88.700000	94.200000	110.900000	116.000000	97.100000	89.900000	91.800000	116.700000	142.300000	1252.200000
107	"Altenau (A)                             "	51.800000	10.433300	460.000000	133.300000	93.900000	115.300000	97.000000	100.900000	118.800000	116.600000	105.000000	92.900000	96.200000	129.000000	159.500000	1358.200000
108	"Altenau-Bastesiedlung                   "	51.833300	10.533300	635.000000	114.500000	91.800000	112.500000	97.700000	97.200000	112.900000	104.100000	106.800000	85.200000	92.400000	116.600000	142.700000	1274.300000
110	"Altenberge                              "	52.048299	7.488057	65.000000	68.300000	49.200000	62.400000	52.000000	62.800000	78.400000	69.300000	64.100000	64.800000	55.500000	70.300000	77.500000	774.700000
112	"Altenbrak (Rappbode Talsperre )         "	51.738963	10.896457	430.000000	54.100000	46.700000	56.300000	56.400000	65.100000	68.000000	49.300000	65.900000	43.800000	44.400000	61.500000	63.200000	674.800000
115	"Altenbrak-Wendefurth                    "	51.741163	10.918953	353.000000	52.100000	40.500000	55.800000	57.300000	67.000000	65.700000	50.600000	69.100000	42.000000	44.800000	56.600000	57.600000	659.100000
117	"Altendambach                            "	50.560497	10.717901	520.000000	81.800000	69.100000	77.100000	71.100000	71.300000	95.300000	80.600000	78.900000	68.800000	67.200000	84.800000	107.300000	953.400000
118	"Altendorf                               "	49.405257	12.285179	391.000000	48.200000	42.700000	49.600000	45.500000	68.400000	79.000000	75.400000	69.700000	55.600000	48.300000	44.300000	56.400000	683.100000
119	"Altenhagen-Starkow                      "	54.275586	12.751415	7.000000	49.100000	31.600000	42.900000	43.700000	52.500000	66.600000	76.200000	67.100000	63.800000	52.300000	59.400000	52.600000	657.900000
120	"Altenhof                                "	52.913551	13.711799	50.000000	48.900000	37.200000	43.700000	47.100000	60.700000	77.000000	58.000000	65.300000	47.300000	39.800000	52.100000	59.600000	636.900000
121	"Neitersen                               "	50.665417	7.576472	218.000000	88.100000	70.500000	82.900000	73.200000	81.900000	88.000000	93.800000	89.900000	79.000000	73.900000	94.800000	107.300000	1023.100000
122	"Altenmedingen-Eddelstorf                "	53.147100	10.619477	61.000000	55.300000	39.700000	49.900000	51.200000	53.800000	71.500000	64.800000	68.700000	57.700000	48.200000	54.700000	60.100000	675.700000
124	"Bibra, Bad-Altenroda                    "	51.238782	11.577004	265.000000	30.600000	29.900000	36.500000	45.300000	56.300000	66.400000	54.500000	55.000000	39.800000	34.000000	37.100000	38.800000	524.200000
127	"Altensteig-Wart                         "	48.617110	8.650122	594.000000	80.500000	73.900000	66.700000	71.400000	86.700000	104.200000	75.400000	80.700000	61.100000	62.000000	84.400000	85.800000	932.700000
128	"Altenthann-Forstm_hle                   "	49.084395	12.323160	446.000000	52.900000	48.100000	50.000000	48.600000	71.700000	88.900000	78.600000	83.500000	58.900000	45.700000	53.800000	61.300000	742.000000
129	"Altentreptow                            "	53.689277	13.242000	33.000000	42.900000	28.800000	40.100000	37.700000	51.900000	61.900000	59.400000	54.400000	47.000000	38.100000	47.800000	50.200000	560.200000
130	"Altertheim-Oberaltertheim               "	49.728287	9.769150	300.000000	51.100000	45.000000	53.800000	53.200000	62.900000	83.600000	64.800000	65.800000	46.000000	46.500000	55.500000	61.600000	689.600000
131	"Geringswalde-Altgeringswalde            "	51.088055	12.932614	296.000000	51.300000	45.700000	48.600000	60.800000	59.600000	72.400000	64.400000	75.500000	52.000000	45.500000	54.600000	60.800000	691.100000
132	"Altglash_tte                            "	49.772498	12.389068	750.000000	63.200000	53.200000	58.600000	67.800000	94.200000	99.800000	94.800000	92.200000	78.000000	67.200000	68.200000	76.000000	913.200000
133	"Althengstett-Ottenbronn                 "	48.735897	8.749307	530.000000	61.100000	59.900000	58.000000	66.700000	84.800000	101.500000	70.400000	81.500000	60.600000	50.400000	76.200000	65.300000	836.400000
135	"Altkirchen                              "	50.933300	12.350000	232.000000	38.100000	37.400000	44.100000	58.600000	58.900000	77.500000	60.900000	64.900000	47.900000	44.000000	46.300000	45.900000	624.500000
137	"Altlohbergh_tte                         "	49.176172	13.131473	825.000000	107.300000	80.600000	93.100000	94.700000	118.600000	125.600000	141.100000	127.000000	94.300000	84.200000	100.300000	125.700000	1292.500000
138	"Altmannstein-Laimerstadt                "	48.882095	11.711381	430.000000	50.600000	40.600000	41.800000	45.000000	68.900000	80.800000	78.100000	77.200000	53.400000	46.300000	51.700000	56.200000	690.600000
139	"Altmannstein-Pondorf                    "	48.943687	11.569401	530.000000	50.600000	44.500000	44.300000	50.100000	73.900000	88.100000	78.800000	74.900000	55.300000	50.700000	55.300000	58.400000	724.800000
140	"Altmersleben                            "	52.686058	11.427159	35.000000	40.800000	32.500000	39.100000	42.900000	49.000000	60.400000	56.100000	57.500000	45.000000	35.600000	44.300000	44.800000	548.100000
141	"Altm_rbitz, Talsperre Sch_mbach         "	50.993160	12.573118	207.000000	38.700000	36.400000	39.000000	56.700000	60.200000	71.700000	59.300000	76.500000	49.000000	45.300000	43.700000	46.900000	623.500000
142	"Altom_nster-Maisbrunn                   "	48.406038	11.311716	510.000000	48.500000	47.300000	48.300000	66.600000	93.000000	117.600000	102.500000	99.300000	73.100000	53.700000	60.800000	53.500000	864.300000
143	"Altom_nster-Wollomoos                   "	48.401246	11.198361	505.000000	51.400000	49.700000	49.300000	63.000000	95.100000	124.300000	95.100000	102.300000	73.400000	58.300000	63.300000	55.300000	880.400000
144	"Altreetz                                "	52.764173	14.166433	6.000000	32.300000	27.400000	29.500000	33.400000	50.600000	62.400000	50.800000	52.100000	39.700000	32.900000	38.500000	39.100000	488.700000
145	"Altusried-Krugzell                      "	47.798510	10.253802	642.000000	80.300000	74.500000	76.500000	97.800000	113.200000	144.600000	127.500000	134.500000	96.700000	74.200000	92.800000	89.300000	1202.000000
146	"Altusried-Muthmannshofen                "	47.792210	10.098824	730.000000	94.100000	93.800000	92.400000	113.300000	135.400000	156.800000	151.200000	153.600000	113.100000	82.500000	112.000000	114.300000	1412.400000
147	"Altwigshagen                            "	53.717060	13.835058	9.000000	36.700000	25.500000	36.100000	37.900000	55.600000	54.300000	57.300000	57.500000	45.000000	37.500000	44.900000	45.000000	533.300000
148	"Alveslohe                               "	53.800000	9.900000	33.000000	64.600000	44.000000	56.500000	52.000000	56.800000	79.200000	85.100000	71.500000	73.900000	68.900000	77.700000	76.800000	807.000000
150	"Alzey                                   "	49.727300	8.116356	215.000000	36.300000	36.200000	40.600000	45.700000	64.400000	67.800000	62.600000	50.000000	43.300000	45.300000	50.100000	43.400000	585.600000
151	"Amberg-Unterammersricht                 "	49.469064	11.854641	383.000000	54.800000	48.600000	48.900000	47.100000	63.300000	81.200000	74.100000	73.000000	49.800000	46.400000	52.800000	60.900000	701.000000
152	"Amelinghausen                           "	53.126800	10.218440	57.000000	67.900000	47.500000	59.000000	53.200000	57.200000	75.300000	75.500000	71.800000	62.300000	55.300000	68.300000	72.800000	766.100000
155	"Amerdingen                              "	48.725740	10.491460	492.000000	52.400000	50.200000	45.500000	58.000000	79.900000	97.200000	83.800000	72.400000	58.400000	48.200000	57.000000	55.700000	758.700000
156	"Amesdorf-Warmsdorf                      "	51.776963	11.574353	96.000000	28.400000	26.500000	31.500000	36.100000	49.200000	58.900000	44.100000	56.900000	34.800000	29.200000	33.900000	34.200000	463.800000
158	"Am_neburg-R_digheim                     "	50.784026	8.954487	210.000000	44.200000	39.300000	47.600000	44.100000	63.200000	61.200000	61.000000	60.800000	47.500000	50.500000	54.100000	56.300000	629.600000
159	"Amorbach                                "	49.640295	9.229530	181.000000	67.900000	60.300000	66.300000	60.800000	70.900000	80.100000	68.700000	70.500000	53.700000	60.600000	70.500000	82.200000	812.500000
160	"Andechs-Erling                          "	47.963617	11.177763	682.000000	50.600000	48.300000	52.300000	81.100000	117.200000	136.500000	130.700000	133.900000	87.100000	63.500000	65.600000	51.800000	1018.600000
161	"Andernach                               "	50.423672	7.420164	75.000000	44.800000	37.300000	46.500000	47.000000	55.800000	62.000000	71.600000	63.300000	44.300000	44.400000	52.900000	49.300000	619.200000
162	"Anger-Oberh_gl                          "	47.801327	12.898432	690.000000	76.700000	71.100000	79.900000	90.300000	134.100000	167.800000	175.200000	166.600000	98.300000	78.800000	90.900000	88.800000	1318.700000
163	"Anger-Stoi_berg                         "	47.802962	12.819240	827.500000	164.100000	129.800000	139.400000	153.000000	179.100000	206.000000	197.500000	187.700000	123.200000	118.300000	146.400000	165.200000	1909.700000
164	"Angerm_nde                              "	53.031558	13.990820	53.900000	36.400000	30.300000	33.600000	38.900000	51.300000	68.800000	53.600000	55.500000	43.800000	33.300000	44.100000	42.600000	532.100000
165	"Angern                                  "	52.361097	11.734618	50.000000	37.700000	29.300000	38.100000	36.000000	45.200000	58.600000	46.100000	51.800000	43.000000	30.600000	42.000000	46.000000	504.500000
166	"Angersdorf                              "	51.466700	11.900000	108.000000	25.300000	23.500000	28.500000	36.700000	48.200000	52.500000	43.300000	49.500000	36.000000	29.100000	31.100000	33.100000	436.700000
167	"Anklam                                  "	53.841190	13.684647	9.000000	42.500000	29.800000	40.800000	40.900000	54.400000	54.600000	62.100000	58.400000	50.600000	41.400000	49.200000	53.000000	577.500000
168	"Ankum                                   "	52.546058	7.876312	62.000000	77.000000	50.900000	64.900000	58.100000	64.400000	80.300000	73.200000	66.400000	61.400000	63.900000	78.300000	84.000000	822.900000
169	"Annaberg-Buchholz                       "	50.573012	13.005262	630.000000	66.200000	56.400000	61.200000	64.400000	73.000000	93.100000	85.700000	78.200000	69.600000	50.400000	61.500000	74.600000	834.200000
170	"Annaburg                                "	51.730878	13.054575	76.000000	37.200000	32.400000	37.000000	45.600000	56.400000	65.400000	51.000000	68.500000	45.300000	39.700000	44.200000	49.200000	571.800000
172	"Annaturm                                "	52.248598	9.505562	395.000000	77.600000	56.900000	69.700000	68.000000	77.800000	90.500000	83.100000	78.000000	63.600000	58.500000	75.900000	87.400000	887.000000
173	"Annweiler                               "	49.202841	7.971915	200.000000	72.100000	69.700000	68.400000	62.000000	77.700000	79.600000	70.600000	79.900000	72.200000	80.900000	85.700000	91.300000	910.100000
175	"Ansbach                                 "	49.296441	10.575139	413.000000	54.100000	51.100000	52.000000	54.800000	69.400000	76.100000	69.400000	78.300000	48.800000	50.600000	53.300000	64.000000	721.900000
176	"Ansbach-Claffheim                       "	49.247546	10.582638	481.000000	55.200000	48.200000	52.800000	55.000000	74.000000	84.400000	71.700000	79.800000	50.800000	47.900000	54.900000	61.100000	735.700000
179	"Apfeldorf                               "	47.896302	10.932006	664.000000	61.500000	57.500000	63.900000	90.400000	119.000000	152.700000	145.500000	149.800000	93.900000	69.100000	77.700000	66.900000	1147.700000
180	"Apolda                                  "	51.030648	11.504976	205.000000	33.000000	31.500000	38.200000	50.500000	61.700000	71.600000	51.800000	62.100000	42.500000	38.700000	39.100000	40.300000	560.800000
182	"Arendsee-Kl_den                         "	52.868206	11.440000	33.000000	45.400000	34.500000	39.100000	44.000000	49.900000	63.600000	57.400000	52.700000	46.700000	35.800000	47.200000	49.800000	566.100000
183	"Arkona                                  "	54.679160	13.434252	42.000000	35.100000	26.700000	33.700000	33.800000	37.400000	48.300000	56.800000	58.300000	50.900000	44.100000	52.800000	42.800000	520.800000
184	"Arneburg                                "	52.676863	12.007669	55.000000	37.200000	28.100000	35.800000	40.100000	48.100000	58.500000	51.500000	53.800000	41.000000	35.100000	42.800000	44.000000	515.800000
186	"Arnsberg                                "	51.377293	8.071289	217.900000	92.800000	70.000000	83.200000	78.500000	83.100000	103.400000	100.500000	82.500000	71.100000	68.500000	91.400000	103.300000	1028.400000
187	"Arnsberg-Holzen                         "	51.418809	7.912597	265.000000	79.500000	57.600000	74.800000	72.800000	79.600000	94.700000	97.300000	73.300000	69.200000	64.900000	79.100000	89.400000	932.100000
188	"Arnstadt                                "	50.850000	10.966700	267.000000	24.400000	27.600000	36.400000	46.000000	57.400000	64.900000	44.100000	53.400000	34.300000	30.200000	34.900000	33.700000	487.300000
189	"Arnstein-Altbessingen                   "	50.026954	9.977117	265.000000	49.700000	43.500000	45.900000	48.900000	53.100000	74.000000	54.200000	58.400000	48.400000	46.800000	58.900000	61.700000	643.700000
190	"Arnstein-Marbach                        "	49.974460	9.933224	202.000000	45.900000	42.800000	45.500000	47.600000	53.200000	65.800000	50.200000	59.200000	45.600000	44.600000	57.500000	58.900000	616.700000
192	"Arnstorf                                "	48.556540	12.812630	385.000000	46.000000	42.000000	45.200000	49.200000	74.600000	93.000000	78.400000	93.300000	60.200000	47.300000	55.100000	54.200000	738.400000
193	"Arolsen-Neu Berich                      "	51.384495	9.082036	232.000000	57.100000	47.500000	53.600000	55.300000	70.500000	78.500000	71.400000	70.700000	54.100000	49.100000	63.000000	69.300000	740.100000
194	"Arolsen-Landau, Bad                     "	51.343117	9.076333	265.000000	40.100000	36.800000	40.300000	49.600000	60.200000	62.700000	59.200000	63.200000	50.800000	40.500000	48.900000	46.400000	598.500000
196	"Arolsen-Schmillinghausen, Bad           "	51.433300	9.016700	248.000000	50.800000	40.400000	51.200000	49.700000	67.400000	71.200000	69.800000	58.300000	49.300000	41.800000	57.900000	62.700000	670.400000
198	"Artern                                  "	51.374461	11.291977	164.000000	26.700000	24.200000	29.700000	35.600000	50.900000	59.000000	54.400000	52.600000	40.900000	32.000000	33.400000	34.600000	474.000000
199	"Artlenburg                              "	53.375173	10.479496	6.000000	56.000000	38.400000	50.100000	46.700000	53.000000	65.100000	69.600000	65.700000	62.900000	49.300000	57.000000	59.900000	673.600000
200	"Lauperath-Scheidchen                    "	50.084966	6.316098	517.000000	97.700000	75.100000	95.600000	82.200000	77.900000	87.800000	85.100000	71.800000	74.000000	87.300000	109.500000	104.700000	1048.600000
201	"Asbach                                  "	50.666095	7.445927	255.000000	82.300000	61.300000	74.900000	71.000000	77.000000	89.000000	98.100000	83.100000	71.100000	72.600000	83.400000	88.200000	951.900000
202	"Aschaffenburg                           "	49.977756	9.111444	110.000000	48.500000	44.800000	52.500000	54.400000	68.600000	80.600000	69.800000	70.900000	50.300000	52.100000	60.200000	62.700000	715.400000
203	"Aschau-Innerkoy                         "	47.786014	12.336791	607.000000	130.600000	103.900000	127.400000	166.200000	199.300000	245.800000	229.600000	222.100000	152.700000	132.400000	142.900000	141.000000	1993.700000
204	"Aschau-Sachrang                         "	47.700194	12.273094	731.000000	121.000000	105.200000	112.200000	141.100000	173.100000	246.200000	221.900000	220.800000	138.900000	113.600000	132.600000	128.800000	1855.400000
205	"Aschau-Stein                            "	47.727430	12.298217	680.000000	155.200000	122.100000	148.800000	177.000000	201.500000	271.800000	257.900000	238.600000	156.000000	138.200000	151.400000	169.000000	2187.300000
206	"Aschendorf                              "	53.050000	7.333300	3.000000	66.500000	44.900000	57.800000	50.400000	61.000000	74.200000	81.000000	73.300000	65.900000	65.900000	74.200000	70.600000	785.600000
207	"Aschersleben                            "	51.749765	11.466670	105.000000	27.800000	24.300000	30.900000	40.800000	48.400000	61.600000	48.500000	55.900000	32.300000	28.400000	32.200000	31.000000	462.200000
208	"Aseleben                                "	51.488697	11.667944	100.000000	29.000000	27.100000	33.000000	39.600000	46.800000	55.200000	48.500000	52.800000	35.400000	29.800000	32.700000	36.200000	466.200000
213	"Sargstedt                               "	51.937541	10.989739	170.000000	35.000000	30.700000	39.200000	46.200000	56.300000	64.400000	51.600000	62.300000	35.800000	33.900000	36.600000	41.100000	533.000000
214	"Attendorn                               "	51.121222	7.910814	307.000000	111.300000	78.900000	95.500000	72.100000	74.000000	89.900000	91.700000	77.200000	83.100000	79.100000	105.800000	123.600000	1082.400000
215	"Attendorn (Listertalsperre)             "	51.099824	7.835226	340.000000	128.400000	92.100000	113.400000	83.800000	80.100000	98.800000	107.200000	92.700000	93.600000	96.000000	123.600000	148.500000	1258.300000
216	"Attendorn-Neulisternohl                 "	51.114277	7.880705	298.000000	114.200000	81.200000	98.200000	71.600000	77.000000	93.800000	93.000000	76.200000	84.700000	81.600000	110.400000	130.000000	1111.800000
217	"Attenkam                                "	47.877407	11.364245	672.000000	56.600000	53.100000	56.700000	86.300000	122.700000	157.100000	149.200000	137.200000	93.700000	66.100000	71.100000	59.500000	1109.500000
218	"Atzendorf                               "	51.918047	11.595447	83.000000	30.800000	28.700000	34.200000	38.600000	47.300000	56.700000	47.000000	54.300000	36.300000	29.400000	35.300000	38.100000	476.700000
219	"Atzendorf (Marbeschacht)                "	51.916700	11.566700	77.000000	23.400000	20.700000	27.700000	32.000000	41.000000	50.800000	39.700000	45.000000	31.400000	26.000000	30.200000	31.200000	399.200000
222	"Aue                                     "	50.590707	12.714005	387.000000	50.600000	47.700000	51.400000	70.400000	82.300000	96.300000	82.300000	83.000000	62.400000	47.400000	54.900000	62.700000	791.600000
223	"Auerbach/Oberpfalz                      "	49.700801	11.623281	418.000000	86.600000	64.800000	68.500000	76.500000	100.400000	92.500000	84.300000	77.000000	70.200000	77.500000	77.700000	97.600000	973.600000
224	"Auerberg                                "	47.733300	10.733300	1045.000000	79.300000	67.000000	74.200000	102.900000	139.500000	196.000000	169.400000	183.100000	106.400000	78.900000	80.700000	75.100000	1352.400000
225	"Auerstedt                               "	51.100000	11.583300	150.000000	33.000000	31.600000	37.200000	50.100000	57.200000	63.600000	53.600000	60.900000	41.400000	33.700000	37.800000	38.400000	538.500000
226	"Aufkirchen                              "	48.305961	11.858569	480.000000	41.200000	39.100000	42.700000	51.500000	86.800000	105.100000	98.000000	100.700000	66.900000	43.800000	47.300000	44.500000	767.300000
227	"Aufse_-Hochstahl                        "	49.882331	11.265587	432.000000	81.800000	64.500000	69.500000	64.800000	67.800000	84.900000	75.800000	59.800000	58.000000	61.300000	72.600000	93.800000	854.500000
228	"Augsburg (Hochabla_)                    "	48.347351	10.935099	486.000000	50.300000	48.900000	47.800000	66.800000	90.400000	110.800000	92.300000	94.400000	69.200000	50.200000	58.500000	54.400000	834.000000
229	"Augsburg (Kl_ranlage)                   "	48.400000	10.900000	470.000000	47.400000	47.400000	47.500000	66.800000	84.900000	102.900000	93.900000	88.800000	64.000000	43.400000	59.100000	49.700000	795.700000
231	"Augsburg (Sankt Stephan)                "	48.372348	10.894805	490.000000	48.200000	48.400000	46.800000	64.500000	92.600000	114.500000	87.900000	88.800000	63.500000	44.500000	60.100000	54.500000	814.200000
232	"Augsburg                                "	48.425393	10.942011	461.400000	37.000000	38.800000	35.200000	59.200000	87.000000	102.300000	84.800000	97.100000	65.100000	47.500000	52.700000	43.000000	749.700000
234	"Augsdorf                                "	51.600083	11.568857	190.000000	33.600000	32.800000	39.300000	40.100000	52.200000	56.100000	51.300000	54.000000	36.900000	30.100000	35.100000	35.800000	497.500000
235	"Augustdorf                              "	51.890536	8.732285	163.000000	82.200000	58.300000	72.200000	67.500000	77.000000	83.200000	87.700000	78.600000	71.400000	64.000000	82.900000	94.500000	919.600000
236	"Augustenberg                            "	49.004765	8.493241	153.000000	50.800000	49.000000	50.700000	58.400000	78.800000	79.300000	70.500000	69.100000	51.700000	53.800000	64.800000	60.800000	737.600000
237	"Augustusburg                            "	50.812385	13.103342	451.000000	61.000000	52.000000	56.600000	62.400000	73.400000	93.600000	81.400000	84.900000	64.400000	50.400000	56.400000	72.600000	809.100000
242	"Aurach-Weinberg                         "	49.233147	10.363470	510.000000	66.700000	53.400000	60.900000	60.400000	74.300000	83.900000	69.000000	80.100000	52.400000	53.400000	60.800000	74.400000	789.500000
243	"Aurich                                  "	53.462052	7.466971	4.000000	66.600000	43.100000	57.900000	48.200000	57.800000	76.000000	83.800000	78.600000	76.600000	76.200000	84.400000	74.300000	823.600000
244	"Aurich-Dietrichsfeld                    "	53.539244	7.515863	10.000000	59.700000	40.500000	52.300000	46.800000	52.700000	71.300000	76.700000	74.600000	76.300000	73.600000	80.300000	67.500000	772.300000
245	"Aurich-Wiesens                          "	53.458453	7.574754	8.000000	66.500000	44.400000	58.600000	50.300000	58.200000	77.300000	85.100000	72.900000	75.900000	77.200000	86.000000	75.800000	828.400000
247	"Aying-Kleinhelfendorf                   "	47.942203	11.810282	641.000000	74.600000	66.300000	79.800000	98.000000	124.200000	158.300000	139.400000	144.500000	111.100000	74.400000	81.500000	86.100000	1237.900000
248	"Baalberge                               "	51.763366	11.800719	67.000000	26.100000	23.500000	31.700000	37.600000	47.000000	56.300000	52.800000	51.000000	36.300000	29.200000	33.300000	35.100000	459.800000
249	"Babenhausen-Harreshausen                "	49.970756	8.986163	122.000000	44.500000	43.900000	49.800000	53.300000	65.400000	71.100000	63.100000	64.000000	46.300000	51.300000	58.200000	61.100000	671.800000
250	"Babenhausen-Hergershausen               "	49.950558	8.889777	131.000000	48.400000	45.900000	52.800000	53.200000	65.500000	74.400000	66.400000	61.600000	49.400000	51.500000	60.600000	63.700000	693.300000
251	"Bachhaupten                             "	47.983300	9.433300	640.000000	46.700000	41.700000	43.600000	63.600000	83.300000	100.600000	98.500000	92.400000	63.400000	51.900000	59.000000	47.000000	791.800000
252	"Backnang                                "	48.954574	9.433607	291.000000	66.400000	58.600000	65.600000	71.000000	92.000000	95.800000	79.200000	94.800000	65.600000	63.500000	68.500000	72.200000	893.100000
255	"Badbergen                               "	52.634648	7.978795	30.000000	63.500000	43.200000	53.500000	48.100000	59.600000	73.400000	72.700000	63.900000	56.100000	55.800000	67.400000	70.100000	727.200000
256	"Baddeckenstedt-Wartjensstedt            "	52.103917	10.193758	103.000000	51.600000	38.600000	48.800000	53.000000	62.600000	79.300000	64.700000	67.200000	49.300000	42.900000	52.900000	59.300000	670.200000
257	"Baden-Baden-Geroldsau                   "	48.726960	8.245757	240.000000	87.100000	78.700000	90.300000	99.500000	115.700000	124.100000	96.800000	103.300000	82.300000	85.200000	104.200000	100.400000	1167.600000
259	"M_llheim                                "	47.806372	7.638655	273.000000	67.700000	65.100000	71.200000	89.900000	106.600000	108.900000	88.800000	107.200000	76.000000	70.000000	80.400000	74.300000	1006.100000
260	"Badersleben                             "	51.986135	10.893353	153.000000	35.900000	29.500000	37.900000	45.800000	54.700000	66.500000	54.900000	65.800000	34.100000	34.600000	35.900000	40.000000	535.700000
262	"B_rnau-Naab                             "	49.798279	12.428831	607.000000	62.500000	54.000000	61.600000	59.100000	77.100000	94.700000	83.500000	82.400000	66.900000	60.600000	66.100000	77.500000	845.900000
264	"Bahnsdorf                               "	51.579307	14.128471	114.000000	36.000000	27.500000	32.300000	43.000000	55.100000	60.700000	50.600000	64.600000	44.200000	39.500000	43.400000	48.000000	545.000000
266	"Bahrendorf                              "	51.997838	11.563851	87.000000	32.800000	28.800000	37.900000	38.200000	46.300000	58.600000	43.600000	51.700000	36.000000	30.000000	39.000000	38.400000	481.300000
268	"Baiersbronn-Obertal                     "	48.529319	8.272676	622.000000	151.600000	126.100000	130.600000	119.100000	114.700000	135.200000	109.300000	111.100000	98.100000	107.800000	149.800000	170.200000	1523.700000
269	"Baiersbronn-Mitteltal                   "	48.511605	8.317622	596.000000	226.700000	173.500000	162.700000	114.400000	162.100000	163.600000	139.400000	142.700000	112.400000	127.300000	189.200000	198.500000	1912.400000
270	"Baiersbronn-Sch_negr_nd                 "	48.569920	8.405935	559.000000	146.800000	133.400000	125.300000	116.700000	115.900000	124.300000	107.400000	108.100000	94.000000	105.400000	152.800000	156.800000	1486.900000
272	"Baiersdorf-Hagenau                      "	49.658302	11.060863	285.000000	50.600000	41.900000	52.200000	51.700000	64.800000	82.800000	73.000000	63.800000	54.300000	50.200000	53.800000	60.400000	699.400000
275	"Balderschwang                           "	47.465029	10.104314	1037.000000	193.500000	178.900000	181.100000	194.100000	211.200000	266.000000	258.700000	249.400000	176.600000	149.800000	188.200000	202.400000	2450.000000
276	"Balgst_dt                               "	51.207329	11.730240	110.000000	29.600000	29.300000	33.500000	45.100000	57.900000	61.100000	54.500000	58.500000	41.200000	34.300000	35.300000	36.700000	517.000000
277	"Balingen-Heselwangen                    "	48.277226	8.883065	571.000000	55.500000	55.000000	57.500000	77.900000	106.200000	110.900000	78.700000	110.400000	64.400000	63.900000	66.400000	57.300000	904.100000
278	"Ballenstedt                             "	51.720567	11.247803	213.000000	37.500000	36.500000	45.400000	46.000000	61.200000	66.900000	53.200000	58.600000	38.200000	32.300000	40.000000	40.000000	555.700000
279	"Baltmannsweiler-Hohengehren             "	48.757344	9.451363	457.000000	60.200000	55.700000	60.300000	77.900000	99.900000	107.500000	84.400000	90.800000	67.800000	60.200000	70.500000	65.300000	900.400000
280	"Bamberg (am T_nnig)                     "	49.866700	10.933300	244.000000	53.900000	44.300000	51.400000	52.900000	62.100000	80.800000	63.400000	59.600000	51.500000	49.900000	55.300000	63.800000	689.000000
282	"Bamberg                                 "	49.874176	10.920581	240.000000	45.000000	38.800000	46.300000	47.900000	62.500000	76.700000	60.200000	58.100000	47.100000	45.200000	49.800000	56.400000	634.000000
285	"Bammental                               "	49.360025	8.782897	131.000000	75.300000	65.200000	73.100000	71.600000	85.400000	87.700000	87.700000	75.500000	67.000000	72.000000	82.100000	85.900000	928.500000
287	"Walternienburg-Ronney                   "	51.961085	11.915881	52.000000	30.200000	26.200000	34.300000	31.700000	47.400000	58.500000	49.800000	55.300000	33.600000	29.800000	34.400000	38.800000	470.100000
288	"Bargischow-Gnevezin                     "	53.840945	13.754867	3.000000	38.700000	24.500000	36.700000	37.700000	52.800000	57.000000	60.300000	59.500000	50.700000	40.000000	47.400000	47.200000	552.500000
289	"Bargteheide                             "	53.727528	10.251417	45.000000	65.800000	43.900000	57.400000	51.000000	56.400000	72.100000	78.900000	71.000000	72.800000	65.000000	72.500000	75.500000	782.200000
290	"Barneberg                               "	52.115521	11.078023	143.000000	44.100000	36.600000	43.200000	44.400000	51.800000	66.400000	52.100000	60.000000	40.900000	36.800000	45.800000	50.800000	573.100000
291	"Barnin                                  "	53.596756	11.695199	42.000000	44.300000	30.200000	41.700000	44.500000	53.900000	62.000000	71.000000	58.000000	51.400000	41.400000	53.600000	50.800000	602.600000
292	"Barnstorf                               "	52.696508	8.486956	37.000000	70.000000	45.600000	56.800000	51.100000	63.700000	67.800000	68.400000	67.800000	53.300000	55.800000	60.900000	71.100000	732.300000
293	"Barsinghausen                           "	52.299192	9.467468	114.000000	62.900000	48.300000	62.100000	65.300000	67.500000	78.500000	74.500000	74.900000	57.600000	52.100000	63.400000	76.400000	783.300000
295	"Barsinghausen-Stemmen                   "	52.346086	9.519159	68.000000	43.500000	33.300000	42.300000	48.100000	59.300000	65.900000	63.000000	69.700000	45.400000	42.200000	47.200000	50.600000	610.500000
296	"Bar_el-Loher Ostmark                    "	53.166555	7.796888	2.000000	66.000000	43.200000	56.800000	51.800000	61.200000	72.700000	71.300000	69.300000	69.300000	67.300000	70.800000	69.400000	769.000000
297	"Bartenshagen-Parkentin                  "	54.080902	11.979244	22.000000	49.300000	31.600000	41.800000	43.500000	48.300000	60.900000	68.600000	55.100000	53.500000	42.300000	55.400000	53.000000	603.500000
298	"Barth                                   "	54.340582	12.710828	3.000000	47.300000	30.500000	41.500000	39.800000	49.700000	56.700000	69.400000	63.100000	60.200000	52.900000	58.100000	53.800000	623.000000
301	"Bartholom_                              "	48.758436	9.985527	659.000000	102.300000	87.700000	87.000000	93.100000	113.600000	126.500000	97.800000	101.000000	75.600000	80.700000	101.800000	107.900000	1174.800000
303	"Baruth                                  "	52.061419	13.499617	54.600000	36.500000	28.700000	31.200000	44.800000	40.900000	67.600000	55.300000	50.600000	43.300000	34.100000	41.000000	46.000000	519.400000
304	"Basdahl-Volkmarst                       "	53.430660	8.954536	27.000000	66.700000	43.900000	55.900000	51.300000	62.600000	75.900000	84.900000	76.000000	71.400000	66.300000	79.300000	72.300000	806.500000
306	"Bassenheim                              "	50.357408	7.463885	170.000000	45.400000	38.600000	48.000000	50.200000	58.300000	70.300000	70.900000	65.500000	48.000000	47.600000	54.300000	48.600000	645.700000
308	"Bastheim-Simonshof                      "	50.411311	10.178183	312.000000	59.200000	47.400000	54.000000	47.900000	57.400000	66.500000	55.700000	60.900000	48.100000	51.600000	65.600000	77.300000	691.700000
309	"Battenberg-Berghofen                    "	51.003100	8.669200	328.000000	82.100000	58.500000	72.200000	55.800000	67.700000	70.100000	71.100000	62.400000	60.400000	62.300000	81.000000	89.300000	833.100000
310	"Battenberg-Hof Karlsburg                "	51.066152	8.537474	590.000000	114.800000	78.600000	90.800000	74.600000	81.400000	91.700000	91.300000	76.500000	75.900000	86.400000	111.200000	127.000000	1100.200000
312	"Baumgarten                              "	53.814887	11.881812	52.000000	52.700000	34.900000	45.600000	46.500000	51.800000	68.000000	71.900000	61.600000	52.200000	42.800000	59.700000	57.200000	645.000000
313	"Baumholder                              "	49.618593	7.334806	468.000000	81.900000	67.700000	78.600000	60.800000	67.700000	71.600000	63.200000	72.300000	61.800000	72.600000	92.000000	94.100000	884.100000
314	"Kubsch_tz, Kr. Bautzen                  "	51.160355	14.504209	232.000000	48.600000	43.100000	45.000000	57.200000	69.900000	68.100000	59.900000	72.900000	54.100000	45.800000	51.800000	58.300000	674.800000
316	"Bayerfeld-Steckweiler -Schmalfelderhof  "	49.695666	7.838697	310.000000	38.000000	38.200000	40.000000	41.400000	56.900000	64.100000	57.700000	52.100000	47.200000	43.500000	51.300000	43.300000	573.600000
317	"Bayerisch Eisenstein                    "	49.119779	13.198664	710.000000	118.900000	88.800000	100.400000	91.800000	115.200000	125.300000	129.600000	117.700000	99.200000	89.200000	111.900000	155.700000	1343.600000
318	"Bayersoien, Bad                         "	47.691926	10.995599	812.000000	77.700000	72.500000	81.400000	107.600000	143.600000	188.600000	177.400000	167.300000	114.400000	81.700000	90.900000	83.800000	1386.900000
319	"Eggenthal-Grub                          "	47.920930	10.502428	756.000000	83.000000	72.400000	79.400000	102.100000	120.300000	145.000000	131.100000	138.500000	97.100000	70.700000	90.700000	94.400000	1224.800000
320	"Heinersreuth-Vollhof                    "	49.966670	11.519692	350.000000	57.900000	45.700000	53.800000	53.400000	62.400000	76.300000	72.500000	59.300000	50.000000	50.900000	58.400000	69.100000	709.700000
321	"Bayrischzell                            "	47.679734	12.001659	789.000000	81.600000	79.000000	85.300000	94.700000	147.600000	186.300000	179.100000	177.600000	106.700000	84.600000	85.900000	94.200000	1402.600000
322	"Bebra-Iba                               "	50.979844	9.865722	255.000000	52.800000	39.600000	50.500000	56.300000	69.300000	78.100000	69.900000	67.100000	48.600000	52.800000	58.100000	65.000000	708.000000
323	"Bechhofen/Mittelfranken -Voggendorf     "	49.162556	10.591838	425.000000	51.900000	44.400000	50.500000	58.500000	72.800000	75.300000	71.900000	68.200000	53.400000	48.600000	51.900000	58.600000	706.000000
324	"Beckingen-D_ppenweiler                  "	49.412516	6.763990	252.000000	79.500000	63.100000	71.500000	55.900000	65.600000	66.400000	68.600000	60.700000	64.500000	66.100000	84.700000	85.400000	832.100000
325	"Beckum-Neubeckum                        "	51.799744	8.029692	105.000000	66.100000	50.200000	64.000000	59.500000	70.400000	79.400000	79.300000	68.200000	64.200000	54.100000	70.800000	78.900000	805.100000
326	"Beckum-Unterberg                        "	51.720353	8.057689	120.000000	61.600000	46.200000	60.400000	54.100000	66.700000	79.900000	78.800000	68.800000	63.200000	49.300000	65.600000	73.400000	767.800000
327	"Bederkesa                               "	53.623437	8.832253	27.000000	75.500000	46.200000	62.800000	56.200000	67.200000	85.600000	94.100000	84.300000	85.400000	83.700000	96.400000	88.200000	925.700000
328	"Beelitz                                 "	52.237221	12.977529	39.000000	39.900000	32.600000	36.300000	39.600000	53.900000	58.600000	43.900000	57.300000	41.000000	34.200000	43.200000	48.900000	529.600000
329	"Beerfelde                               "	52.430309	14.044261	64.000000	41.500000	32.600000	34.400000	36.900000	55.300000	58.500000	50.100000	55.100000	43.800000	37.500000	44.100000	49.100000	538.800000
330	"Oberzent-Beerfelden                     "	49.561729	8.967329	450.000000	101.500000	83.100000	93.200000	75.100000	91.300000	102.100000	87.200000	83.700000	75.600000	88.000000	104.100000	116.800000	1101.600000
331	"Beerfelden-Airlenbach                   "	49.588300	8.925375	360.000000	103.700000	88.900000	104.200000	81.900000	96.000000	102.700000	84.800000	85.800000	79.500000	88.700000	103.000000	117.700000	1136.800000
332	"Beesenlaublingen                        "	51.707272	11.696636	68.000000	28.600000	28.500000	34.700000	38.800000	48.800000	56.900000	48.500000	54.200000	34.700000	30.400000	36.300000	32.300000	472.600000
333	"Beeskow                                 "	52.186416	14.236127	44.000000	36.100000	30.000000	29.600000	35.100000	58.900000	59.600000	50.200000	59.300000	39.700000	32.600000	42.200000	46.200000	519.400000
334	"Beetzendorf                             "	52.707953	11.093610	40.000000	43.500000	36.000000	39.800000	42.700000	48.900000	58.200000	54.900000	64.100000	46.100000	37.300000	44.900000	48.100000	564.400000
336	"H_rselberg-Hainich-Behringen            "	51.022141	10.514781	290.000000	46.000000	39.900000	48.400000	57.300000	68.200000	76.800000	60.800000	60.400000	47.100000	44.300000	52.500000	58.100000	659.800000
337	"Beilngries                              "	49.033376	11.462215	370.000000	52.900000	45.300000	49.200000	52.600000	77.600000	84.700000	73.200000	68.900000	54.600000	49.800000	54.500000	55.800000	719.000000
338	"Belgern                                 "	51.478709	13.118325	120.000000	41.900000	34.100000	38.300000	50.100000	54.600000	64.400000	52.500000	67.000000	47.700000	43.000000	44.600000	50.500000	588.700000
339	"Belgershain-Rohrbach                    "	51.212935	12.562315	141.000000	40.000000	36.500000	40.300000	53.400000	56.400000	63.300000	53.600000	65.800000	50.600000	39.900000	42.100000	47.700000	589.600000
340	"Belleben-Haus Zeitz                     "	51.694773	11.639944	120.000000	28.100000	26.500000	32.400000	40.700000	50.000000	62.800000	51.700000	58.400000	38.200000	32.500000	36.900000	34.400000	492.800000
343	"Belrieth                                "	50.526899	10.495634	310.000000	46.800000	43.100000	48.100000	48.200000	57.100000	73.600000	57.900000	62.300000	50.100000	48.700000	52.500000	65.300000	653.700000
344	"Belsdorf bei Behnsdorf                  "	52.341896	11.151408	135.000000	35.500000	32.200000	39.400000	41.300000	47.100000	61.000000	46.300000	55.300000	38.000000	33.500000	40.600000	42.100000	512.300000
345	"Belzig, Bad                             "	52.143329	12.598090	80.000000	48.700000	41.900000	45.700000	49.100000	56.500000	65.300000	47.500000	60.800000	43.000000	39.600000	50.300000	59.100000	607.400000
346	"Bendeleben                              "	51.376505	11.009245	193.000000	31.900000	26.600000	34.600000	40.200000	53.900000	69.100000	52.600000	53.700000	36.700000	30.500000	39.400000	42.600000	511.600000
347	"Bendorf (A)                             "	50.419901	7.565569	73.000000	45.800000	37.100000	46.300000	47.100000	57.900000	68.200000	81.100000	67.700000	48.800000	49.100000	55.700000	53.400000	658.000000
349	"Benediktbeuern                          "	47.706327	11.413941	630.000000	75.500000	66.900000	80.200000	109.900000	159.800000	211.500000	193.100000	181.400000	127.300000	93.000000	85.500000	81.700000	1465.800000
351	"Oberharz am Brocken-Sorge               "	51.692567	10.697587	508.000000	92.600000	70.600000	82.400000	68.000000	68.600000	90.600000	68.000000	71.500000	60.500000	71.400000	96.200000	108.100000	948.600000
352	"Bennigsen                               "	52.233300	9.666700	85.000000	53.600000	40.100000	53.600000	55.200000	57.400000	70.700000	62.300000	63.800000	51.100000	40.400000	51.300000	64.100000	663.600000
353	"Bensdorf-Woltersdorf                    "	52.406697	12.372618	32.000000	39.100000	31.600000	39.400000	39.200000	51.500000	62.100000	46.000000	52.600000	42.700000	33.500000	43.500000	49.000000	530.300000
354	"Benshausen                              "	50.645938	10.589827	455.000000	70.000000	60.000000	66.000000	62.900000	69.700000	89.000000	72.800000	77.300000	58.900000	60.400000	72.500000	84.200000	843.900000
355	"Bensheim                                "	49.678889	8.627617	140.000000	61.500000	51.400000	61.900000	62.400000	82.200000	93.400000	87.900000	81.800000	58.900000	58.900000	68.400000	65.000000	833.700000
356	"Benthe                                  "	52.336088	9.628842	78.000000	45.400000	38.400000	45.900000	51.200000	63.500000	75.400000	62.400000	69.400000	45.700000	36.500000	49.100000	51.700000	634.700000
357	"Bentheim, Bad                           "	52.301792	7.130106	50.000000	70.700000	49.300000	63.100000	52.900000	62.300000	77.900000	79.000000	67.800000	65.200000	61.300000	75.000000	79.100000	803.600000
358	"Benthullen                              "	53.049101	8.132969	13.000000	62.000000	41.300000	55.000000	47.600000	63.200000	76.600000	69.400000	69.000000	57.100000	57.700000	65.600000	66.900000	731.400000
359	"Beratzhausen                            "	49.102270	11.795766	463.000000	66.400000	49.400000	54.600000	54.100000	71.400000	90.000000	71.800000	80.000000	55.900000	53.300000	61.100000	69.500000	777.500000
360	"Berching                                "	49.111467	11.432818	403.000000	57.300000	47.400000	50.100000	57.700000	77.800000	90.300000	78.800000	72.700000	58.300000	50.000000	58.300000	61.300000	760.000000
361	"Berchtesgaden (KKst)                    "	47.634447	13.010919	550.000000	96.600000	81.900000	84.800000	104.900000	151.700000	175.200000	188.700000	197.200000	102.600000	80.100000	90.700000	108.900000	1463.200000
363	"Berchtesgaden-Obersalzberg              "	47.632747	13.050314	930.000000	116.200000	85.400000	100.700000	119.300000	166.300000	194.400000	212.700000	216.900000	125.000000	90.500000	104.700000	119.800000	1651.700000
366	"Berga/Elster                            "	50.752426	12.167287	263.000000	37.000000	35.600000	41.600000	55.500000	63.800000	78.700000	66.400000	75.200000	49.400000	39.200000	41.000000	44.500000	627.800000
369	"Bergen-Nindorf, Kreis Celle             "	52.833300	9.983300	76.000000	63.300000	46.400000	55.000000	49.900000	57.400000	84.400000	71.100000	78.400000	57.800000	50.800000	64.500000	73.600000	752.700000
371	"Bergen/R_gen                            "	54.421453	13.437882	82.000000	55.100000	38.400000	49.600000	42.400000	51.100000	60.600000	76.200000	67.600000	58.400000	56.000000	61.400000	64.700000	681.600000
372	"Bergisch Gladbach -Refrath              "	50.955188	7.101809	67.000000	73.800000	54.100000	71.900000	62.700000	77.400000	94.800000	92.600000	79.900000	70.700000	63.500000	75.100000	81.500000	898.000000
374	"Berglen-Birkenwei_buch                  "	48.849786	9.488100	402.000000	67.700000	61.300000	66.200000	81.500000	103.900000	109.100000	87.400000	100.600000	73.500000	68.900000	76.700000	70.700000	967.600000
375	"Bergneustadt-H_ngringhausen             "	51.002335	7.671051	375.000000	121.100000	89.000000	108.500000	87.400000	88.600000	103.500000	111.900000	91.200000	91.400000	94.000000	120.500000	140.700000	1247.900000
376	"Bergtheim                               "	49.898119	10.065317	270.000000	42.400000	40.400000	42.900000	46.900000	52.200000	73.200000	54.800000	54.600000	44.200000	44.000000	54.200000	56.600000	606.200000
377	"Bergzabern, Bad                         "	49.107025	7.996749	210.000000	68.700000	62.600000	63.700000	58.200000	76.000000	75.600000	60.600000	63.900000	56.700000	62.800000	75.100000	80.000000	803.800000
378	"Berka                                   "	51.684265	10.107677	136.000000	49.100000	38.000000	44.800000	49.900000	60.500000	79.800000	66.400000	61.700000	49.500000	41.100000	51.900000	60.800000	653.400000
379	"Berka, Bad (Flugplatz)                  "	50.907431	11.266503	303.000000	42.700000	37.800000	50.400000	61.200000	75.700000	84.100000	57.200000	70.300000	48.700000	46.700000	47.100000	48.300000	670.100000
381	"Berka, Bad                              "	50.898762	11.273913	287.000000	40.900000	39.300000	51.700000	59.800000	70.900000	83.800000	58.100000	67.200000	46.800000	45.000000	47.600000	47.500000	658.500000
382	"Berka/Werra                             "	50.940450	10.074592	225.000000	44.800000	39.100000	48.000000	48.700000	61.800000	69.100000	57.300000	59.200000	43.400000	42.800000	53.300000	58.200000	625.800000
383	"Berkatal-Frankenhain                    "	51.237315	9.889916	318.000000	69.400000	60.400000	71.300000	73.400000	74.000000	87.200000	76.000000	70.700000	60.500000	62.200000	79.900000	84.300000	869.200000
386	"Berleburg, Bad                          "	51.045431	8.385144	445.000000	101.300000	74.700000	86.400000	68.700000	71.100000	83.500000	85.000000	75.700000	67.900000	74.200000	100.100000	116.000000	1004.400000
387	"Berleburg, Bad (Alte Warte)             "	51.066700	8.383300	470.000000	121.100000	87.800000	97.600000	75.500000	79.200000	92.500000	91.700000	82.800000	75.200000	82.900000	114.300000	132.600000	1133.100000
388	"Berleburg, Bad-Girkhausen               "	51.120123	8.454033	510.000000	121.800000	85.500000	99.600000	76.500000	85.700000	91.200000	93.100000	89.400000	82.800000	87.700000	116.900000	122.600000	1152.700000
389	"Berleburg, Bad-Arfeld                   "	51.014835	8.431837	436.000000	95.000000	68.700000	74.600000	60.900000	67.200000	79.400000	77.200000	73.400000	64.200000	69.400000	90.600000	102.800000	923.400000
391	"Berleburg, Bad-Wingeshausen             "	51.069828	8.288758	450.000000	122.300000	87.400000	103.300000	79.900000	84.800000	98.200000	99.500000	84.700000	79.600000	88.300000	113.700000	136.700000	1178.500000
392	"Berleburg, Bad-Wunderthausen            "	51.094826	8.514824	543.000000	126.100000	90.100000	102.600000	80.300000	78.700000	96.600000	90.700000	78.100000	75.900000	82.600000	114.400000	137.900000	1154.100000
394	"Berlin (Rosenthal)                      "	52.590285	13.383258	43.000000	42.000000	34.000000	35.700000	38.400000	48.200000	73.300000	51.700000	55.700000	46.100000	35.000000	48.000000	53.800000	562.000000
399	"Berlin-Alexanderplatz                   "	52.519785	13.405678	35.800000	44.000000	36.000000	36.800000	40.500000	51.900000	74.400000	55.800000	61.500000	45.400000	33.300000	47.400000	54.900000	581.700000
400	"Berlin-Buch                             "	52.630941	13.502150	60.000000	42.200000	34.300000	37.100000	41.300000	54.800000	65.800000	50.000000	55.900000	47.300000	36.700000	46.800000	52.200000	564.300000
401	"Berlin-Charlottenburg                   "	52.516700	13.266700	55.000000	43.800000	36.600000	37.900000	39.900000	57.500000	76.100000	56.800000	62.900000	46.300000	36.400000	50.300000	55.600000	600.200000
403	"Berlin-Dahlem (FU)                      "	52.453711	13.301731	51.000000	43.200000	36.700000	37.500000	42.200000	55.300000	70.700000	53.100000	65.300000	45.500000	35.800000	49.500000	54.500000	589.200000
404	"Berlin-Friedrichsfelde                  "	52.504696	13.521539	38.000000	45.200000	37.400000	38.100000	40.800000	55.800000	74.500000	54.600000	61.800000	46.600000	37.000000	51.200000	55.600000	598.600000
407	"Berlin-Frohnau                          "	52.646077	13.285772	48.000000	41.800000	33.400000	34.500000	44.600000	53.400000	69.700000	57.700000	52.200000	48.400000	36.900000	48.700000	53.800000	575.000000
409	"Berlin-Johannisthal                     "	52.450000	13.500000	35.000000	45.000000	32.800000	35.600000	40.100000	55.800000	74.900000	47.900000	58.100000	45.800000	32.600000	46.400000	55.200000	570.000000
412	"Berlin-Karlshorst                       "	52.483300	13.516700	35.000000	42.600000	34.800000	35.400000	38.800000	54.700000	71.100000	50.500000	58.800000	42.100000	33.800000	45.100000	54.500000	562.200000
413	"Berlin-Kaulsdorf                        "	52.504396	13.579930	39.000000	41.000000	36.700000	34.200000	37.200000	49.700000	69.300000	54.000000	58.600000	42.300000	33.100000	45.800000	55.800000	557.700000
414	"Berlin-K_penick                         "	52.475300	13.589930	36.000000	45.600000	38.800000	37.900000	40.100000	52.200000	72.500000	59.400000	63.400000	46.800000	34.800000	46.700000	55.600000	593.900000
416	"Berlin-Lichtenrade                      "	52.406906	13.412659	47.000000	37.100000	33.700000	32.900000	39.600000	56.100000	66.300000	48.900000	60.000000	40.400000	33.200000	44.400000	47.900000	540.600000
418	"Berlin-Lichterfelde Ost                 "	52.408905	13.331571	45.000000	41.300000	34.400000	34.800000	40.800000	53.000000	64.900000	52.400000	59.200000	44.000000	33.000000	44.200000	51.000000	553.000000
419	"Berlin-Malchow                          "	52.575287	13.483243	53.000000	43.000000	35.700000	37.700000	40.000000	51.600000	69.900000	51.800000	58.500000	45.600000	34.000000	48.300000	55.300000	571.500000
422	"Berlin-Mitte                            "	52.533300	13.383300	35.000000	42.600000	35.500000	36.700000	39.500000	53.100000	75.100000	53.600000	58.200000	46.600000	34.100000	46.200000	53.000000	574.400000
425	"Berlin-Rudow                            "	52.404407	13.483848	38.000000	41.700000	35.700000	36.800000	41.600000	57.200000	63.900000	54.800000	55.500000	41.100000	36.400000	46.500000	52.800000	563.800000
426	"Berlin-Schm_ckwitz                      "	52.382321	13.623648	35.000000	38.500000	34.700000	34.400000	36.300000	56.200000	59.000000	50.300000	52.100000	44.000000	34.500000	44.500000	49.200000	533.800000
427	"Berlin-Sch_nefeld                       "	52.380698	13.530609	46.000000	34.900000	27.400000	32.300000	37.000000	50.900000	59.400000	53.800000	53.200000	40.700000	32.500000	41.500000	46.200000	510.000000
430	"Berlin-Tegel                            "	52.564412	13.308848	36.000000	39.500000	31.000000	35.000000	39.700000	51.900000	70.900000	50.000000	56.700000	47.000000	35.100000	48.200000	50.800000	555.800000
432	"Berlin-Tegeler Fliesstal                "	52.604382	13.295172	36.000000	45.600000	38.200000	36.700000	38.100000	52.500000	65.500000	46.000000	55.600000	49.700000	35.100000	47.300000	51.200000	561.500000
433	"Berlin-Tempelhof                        "	52.467488	13.402115	48.000000	43.000000	34.100000	37.400000	40.900000	56.000000	75.300000	52.300000	60.500000	45.500000	36.200000	49.300000	53.400000	583.800000
434	"Berlin-Treptow                          "	52.455301	13.469949	35.000000	44.800000	35.200000	38.200000	41.300000	55.800000	73.700000	55.800000	65.500000	45.100000	35.400000	48.900000	55.100000	594.700000
435	"Berlin-Zehlendorf                       "	52.428902	13.232686	45.000000	46.200000	37.400000	40.600000	45.100000	55.400000	78.800000	54.400000	62.400000	48.300000	38.900000	50.200000	60.600000	618.400000
436	"Berlinchen                              "	53.216006	12.581468	75.000000	45.600000	31.400000	39.700000	40.700000	47.700000	60.300000	59.800000	48.300000	42.700000	38.100000	48.000000	51.300000	553.600000
437	"Berlingerode                            "	51.455392	10.235661	230.000000	52.000000	40.900000	52.000000	53.900000	58.300000	80.300000	57.900000	60.700000	47.100000	43.400000	51.100000	64.000000	661.700000
439	"Bernau, Kreis Rosenheim                 "	47.823020	12.397401	522.000000	95.900000	77.200000	91.100000	117.900000	151.700000	185.900000	176.100000	174.600000	113.800000	94.400000	103.500000	101.500000	1483.500000
440	"Bernau-Goldbach                         "	47.815009	8.025552	928.000000	198.100000	161.200000	161.600000	139.600000	151.800000	153.300000	141.500000	140.900000	115.800000	140.100000	194.300000	220.500000	1918.700000
441	"Bernau-Kaiserhaus                       "	47.800000	8.033300	920.000000	131.100000	109.100000	112.600000	104.700000	139.600000	123.300000	121.800000	135.200000	102.200000	118.900000	161.400000	151.900000	1511.900000
444	"Bernbruch                               "	51.184339	12.658701	168.000000	40.800000	37.900000	43.200000	55.200000	60.200000	72.300000	62.800000	67.400000	50.700000	41.600000	46.200000	51.300000	629.600000
445	"Bernburg/Saale (Nord)                   "	51.821767	11.710944	84.000000	27.100000	23.900000	33.000000	38.400000	50.400000	55.600000	49.600000	54.200000	37.600000	29.100000	34.400000	35.900000	469.200000
446	"Berne-Katjenb_ttel                      "	53.154890	8.539604	2.000000	56.500000	39.200000	50.000000	46.200000	55.200000	72.100000	68.100000	64.800000	54.000000	53.200000	61.100000	58.600000	678.800000
447	"Berneck, Bad                            "	50.041459	11.647905	363.000000	67.000000	50.700000	61.700000	60.500000	75.200000	89.900000	81.900000	79.100000	60.200000	58.300000	65.800000	78.900000	829.200000
449	"Bernhardswald-K_rn                      "	49.120071	12.215205	570.000000	56.000000	45.500000	47.600000	54.000000	81.200000	93.400000	89.600000	95.800000	62.700000	52.500000	55.300000	56.200000	789.800000
450	"Bernkastel-Kues                         "	49.918600	7.066400	120.000000	48.500000	46.500000	50.200000	49.100000	67.800000	73.000000	65.300000	74.200000	55.500000	55.400000	63.200000	57.400000	706.000000
451	"Bernried/Niederbayern -Buchet           "	48.920700	12.926707	495.000000	118.600000	94.500000	96.800000	84.700000	99.800000	119.500000	116.600000	113.200000	87.400000	82.600000	101.300000	135.400000	1250.400000
452	"Bernsdorf, Krs. Kamenz                  "	51.373430	14.065986	145.000000	46.900000	38.100000	42.000000	52.500000	57.200000	64.600000	60.800000	73.100000	54.500000	46.700000	53.300000	63.100000	652.800000
453	"Bernsgr_n                               "	50.566700	12.050000	480.000000	41.900000	39.400000	44.100000	61.400000	65.900000	77.900000	72.600000	70.500000	47.900000	42.000000	47.000000	50.300000	660.700000
454	"Rehungen                                "	51.379802	10.522918	348.000000	52.400000	38.100000	47.600000	50.700000	55.800000	74.300000	56.600000	61.400000	47.300000	42.500000	52.300000	62.000000	640.800000
455	"Bersenbr_ck                             "	52.549958	7.950800	35.000000	67.400000	45.300000	57.600000	51.000000	60.300000	76.200000	70.000000	63.000000	53.300000	58.800000	71.100000	73.600000	747.500000
456	"Ber_el                                  "	51.954238	10.756774	134.000000	40.200000	33.000000	43.900000	50.300000	60.400000	80.100000	56.400000	64.400000	36.200000	33.600000	42.400000	42.900000	583.800000
457	"Berthelsdorf                            "	51.057098	14.228262	342.000000	62.300000	51.400000	54.100000	64.600000	77.300000	83.200000	74.600000	82.900000	63.600000	60.400000	64.600000	80.100000	819.000000
460	"Berus                                   "	49.264019	6.686793	363.000000	73.000000	62.300000	69.700000	60.100000	77.300000	78.700000	68.200000	71.600000	66.500000	75.600000	87.300000	85.600000	876.000000
461	"Beschotenweg                            "	53.183300	7.300000	3.000000	56.800000	36.000000	50.800000	43.300000	55.300000	71.300000	72.400000	65.400000	61.600000	64.200000	65.000000	62.600000	704.700000
462	"Besdorf                                 "	54.050000	9.350000	16.000000	86.100000	55.500000	69.600000	58.200000	59.100000	83.500000	99.400000	85.800000	100.900000	92.400000	108.900000	98.800000	998.200000
463	"Bestwig-Nuttlar                         "	51.371794	8.430734	330.000000	99.000000	71.700000	85.400000	76.500000	85.700000	101.200000	102.000000	86.000000	79.400000	72.300000	94.300000	112.400000	1065.900000
464	"Bethau                                  "	51.672286	13.000239	78.000000	31.500000	24.900000	30.000000	44.000000	51.700000	54.400000	44.300000	55.900000	33.500000	28.900000	40.100000	41.300000	480.300000
465	"Rh_nblick-Bettenhausen                  "	50.555995	10.289064	354.000000	55.400000	46.800000	53.400000	50.300000	61.900000	72.100000	57.700000	59.200000	45.000000	46.500000	57.000000	68.700000	673.900000
466	"Betzenstein                             "	49.680002	11.417211	501.000000	93.700000	73.700000	81.100000	73.000000	79.900000	99.300000	88.800000	79.600000	76.000000	76.500000	90.500000	108.700000	1020.600000
469	"Bevensen, Bad                           "	53.083300	10.566700	32.000000	51.600000	38.000000	45.900000	46.000000	52.300000	68.500000	63.300000	67.200000	55.200000	44.600000	53.400000	57.000000	642.900000
470	"Beverungen                              "	51.670863	9.375589	101.000000	68.100000	51.900000	61.200000	58.600000	67.600000	78.200000	69.200000	68.100000	59.700000	49.600000	65.100000	81.900000	779.100000
471	"Bexbach-H_chen                          "	49.385319	7.269216	415.000000	87.500000	69.600000	77.700000	62.500000	80.200000	81.800000	68.000000	69.100000	70.200000	74.000000	90.600000	98.400000	929.600000
472	"Beyendorf-Sohlen                        "	52.048332	11.641338	58.000000	30.500000	27.400000	33.200000	37.300000	45.000000	60.900000	44.000000	54.300000	33.600000	27.500000	34.300000	38.200000	466.200000
473	"Sotterhausen                            "	51.452599	11.396885	200.000000	30.300000	27.200000	33.800000	37.200000	49.400000	56.700000	51.300000	51.700000	39.300000	31.600000	34.900000	38.600000	482.200000
474	"Warthausen-Birkenhard                   "	48.125170	9.763868	599.000000	43.600000	42.100000	42.700000	66.100000	88.800000	106.500000	91.600000	91.100000	71.100000	52.700000	59.500000	48.300000	803.900000
475	"Biberbach-Markt                         "	48.534629	10.811814	436.000000	45.500000	41.900000	40.300000	59.400000	81.300000	102.000000	79.200000	86.800000	63.300000	48.900000	56.200000	50.400000	755.100000
476	"Biblis                                  "	49.689583	8.417922	88.000000	39.700000	37.400000	42.200000	46.600000	67.900000	74.100000	69.800000	62.800000	50.100000	45.700000	53.100000	46.100000	635.400000
477	"Bibra, Bad                              "	51.206828	11.580262	190.000000	34.300000	35.600000	42.200000	48.400000	59.800000	72.100000	55.400000	61.200000	44.800000	37.700000	41.200000	44.100000	577.000000
478	"Biebergem_nd-Bieber                     "	50.160736	9.334210	223.000000	75.600000	63.900000	78.600000	69.800000	79.900000	88.400000	78.800000	81.200000	62.800000	75.900000	92.000000	96.200000	943.100000
479	"W_chtersbach                            "	50.243529	9.289306	138.000000	64.700000	53.900000	69.700000	67.400000	76.200000	86.600000	81.700000	86.000000	62.900000	71.000000	83.200000	84.900000	888.200000
480	"Biedenkopf-Wallau                       "	50.927486	8.493534	296.000000	88.200000	65.600000	77.400000	60.300000	70.900000	77.000000	73.000000	68.300000	61.500000	66.800000	89.000000	103.800000	901.700000
481	"Biedenkopf (Sackpfeife)                 "	50.950967	8.531265	674.000000	91.200000	61.600000	74.900000	65.500000	79.100000	85.200000	80.100000	70.600000	65.800000	71.300000	89.200000	100.600000	935.400000
483	"Bielatal                                "	50.873187	14.038202	364.000000	47.000000	43.100000	46.800000	63.000000	76.200000	73.200000	81.500000	88.500000	59.100000	49.300000	55.300000	57.900000	740.900000
484	"Bielefeld (Stadtreinigungsamt )         "	52.035819	8.563709	99.000000	82.100000	58.600000	71.100000	64.800000	73.500000	79.700000	75.800000	73.000000	70.700000	61.800000	78.600000	97.100000	886.700000
485	"Bielefeld-Altenhagen                    "	52.043918	8.636798	96.000000	62.400000	46.300000	55.200000	51.500000	69.000000	71.400000	70.200000	61.800000	58.500000	50.500000	61.700000	73.800000	732.200000
486	"Bielefeld-Brackwede                     "	51.983300	8.516700	155.000000	80.600000	56.500000	70.600000	65.100000	76.300000	84.900000	80.300000	73.300000	69.400000	61.200000	79.000000	92.800000	890.000000
487	"Bielefeld-Senne                         "	51.983624	8.554011	250.000000	87.900000	63.400000	76.400000	68.500000	83.900000	90.400000	90.400000	75.900000	76.000000	67.600000	89.600000	107.600000	977.600000
488	"Bielefeld-Sennestadt                    "	51.939379	8.593228	127.000000	83.200000	58.100000	72.800000	65.800000	76.000000	87.400000	79.900000	72.700000	68.300000	61.900000	81.000000	93.800000	900.900000
489	"Biendorf                                "	51.750368	11.853211	79.000000	25.700000	25.300000	30.700000	37.500000	47.700000	56.600000	51.000000	57.300000	37.400000	30.100000	34.300000	33.600000	467.300000
490	"Bienenb_ttel-Bargdorf                   "	53.117204	10.490503	31.000000	52.500000	38.800000	48.500000	47.600000	51.800000	64.000000	64.000000	66.500000	50.700000	46.400000	56.800000	58.100000	645.700000
491	"Bieringen                               "	49.350000	9.533300	210.000000	69.400000	55.500000	63.700000	63.100000	66.500000	78.000000	56.200000	74.200000	61.600000	53.300000	65.600000	72.200000	779.500000
492	"Biesenrode                              "	51.605381	11.385485	210.000000	38.100000	36.600000	43.600000	48.500000	51.800000	62.500000	52.900000	56.200000	37.200000	34.800000	40.200000	42.800000	545.100000
493	"Billerbeck                              "	51.962224	7.307302	121.000000	73.700000	52.700000	68.400000	60.700000	69.600000	73.500000	76.200000	70.500000	69.300000	61.600000	71.700000	91.000000	838.900000
494	"Bingen, Kreis Sigmaringen               "	48.113470	9.275637	630.000000	49.400000	46.800000	46.600000	59.100000	80.600000	98.300000	80.600000	91.200000	60.100000	51.400000	57.800000	50.700000	772.500000
495	"Bingen-B_desheim                        "	49.945256	7.901922	82.000000	44.400000	38.100000	40.600000	43.600000	52.600000	58.700000	44.900000	46.900000	51.400000	53.900000	38.500000	50.100000	563.700000
496	"Binz                                    "	54.393981	13.604275	30.000000	47.200000	35.000000	44.300000	41.700000	47.000000	53.900000	67.600000	61.100000	53.500000	48.800000	56.300000	54.600000	611.000000
497	"Birgland-F_rnried                       "	49.455329	11.597489	512.000000	83.900000	62.100000	67.700000	63.000000	70.500000	94.400000	88.800000	80.900000	64.600000	63.200000	69.300000	85.200000	893.600000
498	"_hlingen-Birkendorf                     "	47.745253	8.311091	760.000000	115.500000	101.400000	91.900000	79.200000	86.200000	94.400000	87.200000	97.200000	66.000000	79.400000	109.000000	119.700000	1127.200000
499	"Bad Birnbach                            "	48.441556	13.095092	360.000000	49.200000	45.300000	50.600000	55.800000	87.700000	103.800000	93.600000	106.300000	61.700000	53.600000	57.000000	59.100000	823.800000
500	"Birstein-Fischborn                      "	50.382410	9.302012	340.000000	83.100000	64.100000	76.200000	66.900000	72.400000	87.300000	85.800000	78.700000	65.700000	73.100000	92.600000	107.500000	953.300000
501	"Birx                                    "	50.529597	10.048500	739.000000	91.100000	68.700000	82.100000	79.600000	80.100000	105.000000	87.300000	75.500000	66.200000	68.800000	92.000000	105.100000	1001.300000
502	"Bischbrunn                              "	49.874669	9.488290	412.000000	91.200000	75.500000	86.200000	72.400000	72.000000	94.300000	71.600000	70.300000	60.700000	70.600000	92.600000	107.800000	965.200000
503	"Rosenbach-Bischdorf                     "	51.093769	14.744192	265.000000	42.100000	38.100000	38.900000	50.600000	70.300000	68.500000	64.600000	79.300000	50.000000	43.600000	50.200000	54.400000	650.600000
504	"Bischdorf, Kreis Oberspreewald          "	51.798081	13.971789	78.000000	37.100000	33.400000	34.300000	42.300000	52.800000	62.700000	52.600000	66.000000	45.400000	35.800000	42.500000	47.300000	552.300000
505	"Bischhagen                              "	51.426794	10.093183	332.000000	53.500000	46.700000	53.300000	54.600000	65.400000	89.300000	68.900000	60.700000	52.600000	45.800000	57.200000	70.000000	718.000000
506	"Bischofroda                             "	51.053738	10.365946	235.000000	44.500000	39.100000	48.100000	54.300000	66.000000	78.600000	59.300000	63.500000	49.800000	46.000000	54.700000	58.600000	662.400000
507	"Bischofrode                             "	51.487596	11.533864	275.000000	32.100000	31.200000	38.600000	41.600000	47.700000	64.600000	52.400000	55.500000	40.800000	33.800000	39.800000	40.500000	518.500000
509	"Bischofsgr_n (Hohe Reuth)               "	50.050880	11.793568	664.000000	98.500000	73.900000	86.700000	82.700000	87.500000	113.100000	99.100000	98.800000	78.300000	80.300000	94.500000	113.700000	1107.100000
510	"Bischofsheim/Rh_n                       "	50.398812	10.001609	465.000000	100.100000	75.700000	86.000000	76.900000	71.600000	82.700000	75.900000	75.400000	62.000000	77.300000	96.200000	127.200000	1006.900000
511	"Bischofsmais                            "	48.918401	13.079485	684.000000	112.100000	86.800000	91.600000	79.400000	93.500000	110.600000	104.800000	103.000000	78.400000	79.200000	93.900000	136.400000	1169.800000
512	"Bischofswerda                           "	51.134559	14.190373	300.000000	62.200000	46.800000	48.800000	58.300000	71.300000	73.900000	72.900000	79.000000	59.000000	52.800000	61.000000	77.500000	763.500000
514	"Bischofswiesen-Engedey                  "	47.614148	12.947028	592.000000	124.400000	93.900000	105.600000	116.400000	146.900000	197.600000	204.800000	197.800000	123.200000	95.200000	114.100000	129.200000	1649.300000
515	"Bischofswiesen-Loipl                    "	47.652244	12.925131	870.000000	138.400000	106.600000	117.200000	122.300000	159.500000	213.900000	228.900000	219.200000	131.800000	103.100000	118.900000	141.000000	1800.600000
516	"Bischofswiesen-Winkl                    "	47.687240	12.941528	690.000000	117.200000	89.200000	102.900000	129.200000	168.100000	205.400000	224.100000	211.800000	121.300000	98.700000	113.200000	121.600000	1702.700000
517	"Bismark                                 "	52.659962	11.551840	44.000000	39.100000	31.900000	35.800000	39.200000	49.400000	58.600000	57.900000	58.600000	42.600000	33.800000	42.900000	44.300000	534.300000
518	"Bispingen-Steinbeck/Luhe                "	53.115810	10.069298	97.000000	70.700000	47.600000	60.100000	53.300000	60.500000	78.800000	78.000000	73.300000	63.900000	59.100000	74.200000	78.400000	798.000000
519	"Bispingen-Wilsede                       "	53.165994	9.963780	116.000000	70.000000	49.400000	58.300000	54.100000	62.000000	85.000000	78.400000	76.800000	70.500000	61.900000	76.200000	77.700000	820.400000
520	"Bissendorf-Holte-S_nsbeck               "	52.210497	8.193765	180.000000	77.500000	56.900000	67.200000	58.200000	71.200000	80.900000	75.200000	72.800000	67.300000	62.700000	75.100000	86.900000	851.900000
521	"Bissendorf-Schledehausen                "	52.284189	8.250955	94.100000	65.300000	48.500000	58.900000	54.500000	63.100000	75.600000	65.300000	66.700000	63.900000	54.800000	68.500000	75.400000	760.600000
522	"Bissingen (Kl_ranlage)                  "	48.709197	10.628347	425.000000	41.900000	40.200000	33.500000	49.600000	73.600000	95.300000	80.600000	86.300000	57.200000	46.800000	50.600000	45.600000	701.200000
523	"Bitburg                                 "	49.979689	6.532531	359.000000	66.500000	57.100000	63.900000	53.500000	66.200000	68.400000	71.800000	63.200000	64.500000	65.300000	78.400000	75.100000	793.800000
524	"Bitterfeld                              "	51.633300	12.316700	80.000000	33.500000	30.100000	35.500000	42.600000	51.100000	59.200000	52.100000	57.500000	39.000000	34.700000	38.800000	41.800000	515.900000
526	"Blankenburg, Bad                        "	50.673798	11.280521	254.000000	33.900000	33.000000	38.500000	51.500000	67.000000	68.000000	51.700000	70.700000	40.400000	36.300000	41.100000	40.200000	572.400000
527	"Blankenburg/Harz                        "	51.790100	10.971400	194.000000	39.200000	33.600000	45.200000	48.100000	56.100000	62.500000	45.200000	57.700000	36.400000	33.600000	41.700000	41.600000	540.800000
528	"Blankenfelde                            "	52.333300	13.400000	42.000000	40.700000	35.400000	35.900000	41.500000	54.800000	68.700000	50.000000	61.500000	42.600000	36.600000	45.800000	50.400000	563.800000
529	"Blankenhagen                            "	54.173248	12.341500	26.000000	52.100000	35.000000	45.400000	46.100000	55.200000	66.100000	77.000000	69.200000	63.900000	50.500000	58.400000	57.700000	676.500000
530	"Blankenhain                             "	50.859866	11.343903	365.000000	46.900000	43.100000	48.600000	66.500000	68.400000	79.700000	63.400000	62.700000	51.100000	43.400000	44.200000	52.700000	670.900000
531	"Crimmitschau-Blankenha.                 "	50.810679	12.308161	310.000000	42.700000	39.300000	46.000000	58.500000	66.500000	75.400000	68.000000	79.300000	49.000000	43.700000	45.500000	52.400000	666.400000
533	"Blankenheim-Ahrh_tte                    "	50.384408	6.737474	402.000000	53.500000	48.300000	54.900000	47.300000	58.600000	62.100000	65.800000	60.500000	52.600000	50.300000	63.400000	62.300000	679.600000
535	"Blankenrath                             "	50.037229	7.307861	417.000000	66.000000	57.700000	66.600000	61.200000	78.000000	82.500000	71.700000	78.900000	64.200000	72.100000	77.800000	79.000000	855.600000
536	"Blankenstein                            "	50.399121	11.691859	480.000000	59.200000	50.400000	56.100000	58.100000	68.900000	77.400000	66.200000	78.600000	53.000000	54.200000	63.200000	76.900000	762.200000
537	"Blaubeuren-Wennenden                    "	48.436929	9.744269	705.000000	57.100000	53.500000	50.700000	63.900000	75.300000	94.100000	76.700000	87.300000	61.500000	51.300000	62.600000	58.700000	792.700000
538	"Blaufelden                              "	49.300000	9.966700	450.000000	70.900000	65.000000	67.900000	60.600000	76.900000	88.000000	71.200000	79.200000	51.900000	63.200000	71.900000	86.000000	852.900000
539	"Blaufelden-Gammesfeld                   "	49.312036	10.090508	465.000000	58.200000	52.700000	57.800000	57.500000	69.300000	83.600000	64.900000	74.400000	50.900000	56.500000	61.500000	70.100000	757.400000
540	"Blaustein-Bermaringen                   "	48.461832	9.836054	635.000000	60.400000	52.300000	49.700000	62.900000	78.500000	100.200000	76.800000	90.300000	58.500000	48.400000	62.700000	61.800000	802.500000
541	"Bleckede                                "	53.290184	10.731757	8.000000	50.200000	32.900000	43.900000	44.200000	50.100000	66.100000	60.800000	62.100000	55.500000	41.800000	51.700000	53.800000	613.000000
542	"Bleckede-Walmsburg                      "	53.240142	10.852162	12.000000	49.400000	34.300000	44.800000	49.100000	51.800000	67.000000	63.200000	62.800000	53.600000	42.500000	54.200000	55.900000	628.600000
543	"Bleicherode                             "	51.446795	10.574010	244.000000	55.500000	43.400000	54.300000	54.000000	60.800000	75.600000	53.600000	67.800000	47.100000	43.600000	55.900000	67.200000	678.900000
544	"Blesendorf                              "	53.202406	12.334507	92.000000	46.500000	33.500000	41.200000	40.300000	49.400000	57.200000	65.100000	54.300000	44.100000	37.000000	49.900000	53.600000	572.100000
545	"Blieskastel                             "	49.236736	7.252819	255.000000	74.500000	65.400000	69.100000	56.400000	73.000000	75.200000	65.900000	66.700000	60.100000	66.000000	77.700000	85.400000	835.400000
546	"Blieskastel-Brenschelbach               "	49.151180	7.360121	250.000000	88.600000	71.800000	77.500000	67.400000	85.100000	85.700000	74.000000	75.900000	66.700000	75.500000	96.000000	102.800000	967.000000
547	"Blindheim                               "	48.632617	10.621840	420.000000	46.700000	43.200000	40.400000	53.300000	78.800000	95.300000	76.900000	80.000000	58.000000	49.300000	54.200000	50.100000	726.200000
548	"Blumberg                                "	47.842198	8.536243	707.000000	62.400000	57.600000	54.600000	63.300000	86.700000	86.100000	93.000000	88.700000	56.100000	54.000000	63.900000	74.100000	840.500000
549	"Blumberg, Kreis Barnim                  "	52.606685	13.604924	75.000000	46.300000	35.900000	39.400000	47.900000	63.800000	75.800000	53.800000	62.800000	49.100000	39.400000	53.000000	57.400000	624.300000
551	"Weischlitz-Heinersgr_n                  "	50.388691	11.995528	517.000000	40.500000	38.800000	43.700000	52.600000	68.900000	74.700000	65.800000	75.100000	47.500000	42.900000	44.700000	50.600000	645.700000
552	"Bobingen                                "	48.263760	10.821517	514.000000	51.600000	48.800000	50.100000	72.900000	97.200000	113.800000	93.600000	102.000000	76.300000	57.600000	63.600000	57.300000	884.700000
554	"Bocholt-Liedern (Wasserwerk)            "	51.829300	6.536510	23.000000	61.300000	44.900000	60.800000	48.300000	62.500000	75.400000	75.000000	66.100000	60.700000	56.500000	66.900000	74.100000	752.500000
557	"Bochum-Langendreer                      "	51.466700	7.316700	99.000000	59.500000	46.900000	60.900000	53.800000	62.700000	82.800000	84.400000	70.400000	65.300000	56.000000	67.200000	73.000000	782.900000
558	"Bochum-Weitmar                          "	51.450000	7.200000	128.000000	73.500000	50.600000	66.300000	60.400000	65.700000	78.100000	80.100000	68.900000	73.600000	65.700000	74.200000	79.000000	836.300000
559	"Bockau                                  "	50.539913	12.685310	509.000000	68.300000	60.100000	67.000000	79.500000	87.500000	111.200000	89.200000	99.700000	69.800000	57.900000	67.700000	80.100000	938.200000
560	"Bockenem                                "	52.014727	10.131869	125.000000	54.600000	43.700000	51.600000	56.500000	75.800000	79.200000	69.500000	71.300000	52.300000	44.800000	57.600000	63.800000	720.800000
562	"Bockhorn/Oberbayern -Gr_nbach           "	48.328551	12.003166	453.000000	52.700000	47.200000	52.800000	69.400000	97.000000	132.200000	109.100000	112.600000	80.300000	58.400000	68.100000	59.900000	939.600000
563	"Bocklet, Bad                            "	50.264927	10.082698	238.000000	61.300000	51.000000	54.900000	48.200000	60.700000	63.900000	56.800000	64.400000	48.800000	55.000000	67.900000	80.500000	713.300000
564	"Boddin-Langnow-Heidelberg               "	53.096318	12.313713	66.000000	50.000000	34.100000	43.300000	42.400000	46.600000	63.600000	65.400000	52.500000	44.500000	38.700000	51.100000	58.400000	590.600000
565	"Durach-Bodelsberg                       "	47.684423	10.411881	896.000000	103.000000	92.700000	97.000000	118.400000	143.000000	190.000000	165.600000	173.100000	110.500000	83.000000	100.400000	106.400000	1483.100000
566	"Bodenfelde (Forsthaus Winnefeld)        "	51.692861	9.454676	282.000000	72.600000	55.600000	60.500000	62.000000	72.800000	87.100000	77.600000	76.600000	61.800000	52.700000	67.100000	86.500000	833.000000
567	"Bodenfelde-Amelith                      "	51.695724	9.513524	258.000000	78.500000	59.500000	68.900000	67.500000	73.300000	94.600000	84.100000	80.000000	67.700000	59.900000	75.800000	96.500000	906.200000
568	"Bodenh_usle                             "	48.183300	8.116700	708.000000	140.600000	139.100000	126.600000	128.500000	161.000000	158.200000	135.800000	139.500000	104.200000	117.900000	155.200000	144.200000	1650.800000
569	"Bodenkirchen-Aich                       "	48.424052	12.405390	464.000000	54.900000	49.500000	51.800000	59.500000	83.900000	111.600000	94.100000	106.200000	67.400000	51.200000	63.600000	60.800000	854.500000
570	"Bodenmais-Mais                          "	49.076783	13.076482	648.000000	99.000000	90.300000	99.000000	85.700000	104.800000	128.900000	134.600000	111.200000	89.600000	86.600000	93.900000	127.900000	1251.400000
571	"Bodenteich, Bad                         "	52.837936	10.675073	64.000000	51.600000	40.300000	43.800000	46.300000	51.400000	69.900000	64.900000	68.500000	50.700000	41.700000	54.600000	57.400000	641.000000
572	"Bodenw_hr-Altenschwand                  "	49.298651	12.239898	422.000000	50.000000	44.700000	45.600000	52.400000	72.500000	86.400000	81.200000	84.700000	63.200000	50.100000	51.700000	55.200000	737.500000
573	"Bodman-Ludwigshafen                     "	47.794905	9.045672	415.000000	57.200000	51.300000	52.200000	67.600000	83.400000	96.100000	89.100000	92.600000	66.300000	58.400000	63.300000	58.000000	835.600000
574	"Bodnegg-Billen                          "	47.716700	9.683300	640.000000	80.400000	77.300000	75.800000	100.300000	120.600000	148.400000	132.800000	143.500000	102.100000	78.800000	90.400000	85.900000	1236.500000
575	"B_bing                                  "	47.753019	10.986500	744.000000	58.700000	59.200000	61.300000	88.400000	126.400000	165.700000	151.200000	150.200000	99.400000	71.800000	71.500000	64.300000	1168.000000
576	"B_blingen                               "	48.675904	8.973175	445.000000	52.300000	47.000000	46.500000	64.500000	76.200000	83.600000	68.500000	83.500000	50.800000	49.400000	62.300000	53.600000	738.200000
577	"B_hmfeld                                "	48.866700	11.366700	488.000000	54.400000	43.100000	41.100000	43.800000	68.800000	78.400000	71.200000	65.700000	49.500000	44.600000	52.100000	53.800000	666.400000
578	"B_hming                                 "	48.945085	11.366730	379.000000	55.200000	47.500000	48.100000	49.900000	74.600000	89.900000	79.400000	71.800000	55.600000	49.200000	55.700000	59.000000	735.900000
579	"Rossau-Moosheim                         "	51.013348	13.096859	301.000000	49.900000	45.100000	51.700000	58.900000	63.500000	73.900000	67.400000	75.200000	60.300000	49.400000	54.600000	65.300000	715.200000
580	"Boek                                    "	53.405386	12.786131	64.000000	43.200000	29.800000	39.400000	39.500000	53.800000	64.200000	59.700000	54.200000	48.200000	37.700000	48.700000	49.900000	568.200000
581	"Gro_ B_lkow-Matersen                    "	53.985313	11.998143	17.000000	52.200000	34.500000	44.100000	43.600000	51.400000	62.700000	73.500000	58.500000	56.100000	45.300000	56.600000	56.200000	634.600000
582	"B_nnigheim                              "	49.036845	9.087459	227.000000	52.300000	50.300000	51.400000	56.300000	68.700000	77.700000	65.500000	73.200000	48.700000	49.000000	61.300000	55.800000	710.300000
583	"B_rfink-Thranenweier                    "	49.706666	7.097329	585.000000	106.900000	89.700000	105.000000	79.700000	85.200000	86.500000	78.600000	84.400000	79.700000	98.100000	119.200000	119.800000	1132.700000
584	"Lossatal-Voigtshain                     "	51.407450	12.862566	127.000000	44.300000	36.500000	41.200000	50.200000	53.600000	68.200000	57.400000	63.400000	50.300000	41.500000	48.200000	54.600000	609.400000
585	"B_rnicke, Kreis Havelland               "	52.689169	12.935025	34.000000	42.900000	34.300000	36.200000	45.500000	57.500000	67.100000	49.300000	56.100000	44.700000	34.900000	45.400000	48.800000	562.700000
586	"B_sleben                                "	50.824069	11.058946	360.000000	29.400000	31.300000	40.900000	50.300000	63.100000	81.100000	52.500000	60.700000	44.400000	36.400000	36.400000	37.400000	563.800000
587	"B_ttingen                               "	48.106269	8.803203	928.000000	67.100000	65.100000	65.100000	78.600000	106.700000	121.100000	91.600000	104.400000	64.800000	63.300000	73.700000	71.700000	973.300000
589	"Bogen-Pfelling                          "	48.884802	12.745134	345.000000	58.600000	51.300000	54.300000	50.800000	74.600000	93.300000	82.800000	86.800000	63.600000	56.400000	60.700000	66.500000	799.500000
590	"Boitin                                  "	53.749008	11.979932	65.000000	44.400000	35.600000	46.500000	47.300000	55.300000	66.100000	72.000000	60.300000	52.900000	39.800000	52.200000	53.400000	625.900000
591	"Boizenburg                              "	53.391084	10.687761	45.000000	52.900000	36.100000	47.300000	48.400000	56.400000	67.600000	68.600000	62.500000	60.300000	47.100000	56.600000	58.900000	662.700000
593	"Boll, Bad                               "	48.639708	9.623292	423.000000	64.500000	61.000000	63.700000	85.800000	101.000000	117.200000	95.100000	97.500000	67.200000	61.700000	74.400000	67.500000	956.600000
595	"Oberbarnim-Grunow                       "	52.604546	14.036386	75.000000	42.200000	37.500000	37.800000	36.400000	55.800000	72.400000	50.200000	58.500000	43.300000	39.300000	49.200000	55.200000	578.000000
596	"Boltenhagen                             "	54.002806	11.190772	15.000000	38.300000	25.700000	36.400000	39.800000	50.000000	59.400000	62.800000	56.100000	49.200000	38.500000	50.100000	46.200000	552.500000
597	"Bondorf                                 "	48.525121	8.832896	456.000000	53.700000	52.600000	52.200000	60.800000	80.100000	89.500000	71.600000	78.500000	50.300000	45.800000	61.400000	55.400000	751.900000
598	"Bonn                                    "	50.728465	7.083940	62.000000	45.500000	36.000000	49.400000	46.400000	61.800000	69.900000	67.900000	63.100000	54.900000	45.200000	50.900000	51.700000	642.700000
599	"Bonn-Friesdorf                          "	50.705468	7.146730	62.000000	47.700000	39.100000	50.800000	50.100000	61.900000	73.200000	73.800000	68.500000	58.700000	46.800000	56.100000	53.900000	680.600000
604	"Bonndorf/Schwarzwald                    "	47.819420	8.334841	875.000000	79.200000	62.200000	59.200000	65.500000	80.000000	84.300000	87.200000	87.200000	57.700000	59.000000	82.300000	85.100000	888.900000
606	"Boos                                    "	48.079084	10.197683	569.000000	44.300000	45.100000	49.900000	79.100000	95.400000	130.100000	121.500000	126.500000	84.500000	58.000000	60.500000	50.100000	944.900000
608	"Bopfingen-Flochberg                     "	48.847358	10.364442	498.000000	67.800000	56.800000	57.900000	66.300000	82.900000	94.700000	77.500000	79.600000	57.400000	53.100000	68.000000	72.300000	834.300000
609	"Bopfingen-Baldern                       "	48.901484	10.312081	530.000000	66.500000	56.200000	57.200000	65.700000	86.300000	95.500000	87.500000	78.500000	59.100000	57.500000	68.000000	68.700000	846.700000
610	"Boppard-Salzig, Bad                     "	50.202778	7.636634	77.000000	49.400000	41.900000	51.400000	54.700000	59.900000	70.500000	59.600000	60.400000	48.900000	52.200000	60.400000	57.600000	666.800000
611	"Bordesholm                              "	54.171122	10.043281	30.000000	69.700000	48.000000	56.700000	56.200000	59.800000	72.700000	86.700000	77.000000	77.700000	75.500000	88.200000	80.000000	848.200000
613	"Borgentreich                            "	51.567659	9.232377	206.000000	53.800000	43.000000	51.500000	49.200000	59.800000	75.200000	62.600000	60.900000	56.200000	42.900000	56.500000	66.000000	677.800000
614	"Borgentreich-B_hne                      "	51.570874	9.311999	240.000000	54.400000	43.800000	53.200000	50.300000	61.600000	73.700000	72.200000	62.500000	52.800000	42.800000	55.100000	65.500000	687.900000
616	"Borgstedt                               "	54.333300	9.716700	13.000000	70.400000	46.300000	56.200000	51.600000	54.400000	77.000000	83.800000	74.800000	78.100000	77.200000	87.800000	83.800000	841.300000
617	"Borken in Westfalen                     "	51.873046	6.886297	47.000000	73.900000	52.500000	69.800000	57.100000	72.100000	81.000000	77.100000	73.500000	67.600000	62.500000	79.500000	85.800000	852.300000
618	"Borken/Hessen-Gombeth                   "	51.064032	9.295607	172.000000	39.900000	32.700000	38.400000	39.300000	54.300000	60.400000	60.700000	55.800000	46.100000	40.300000	48.200000	44.700000	560.700000
619	"Borkum-S_derstra_e                      "	53.578793	6.670348	11.600000	64.700000	42.800000	55.300000	43.200000	46.900000	68.900000	72.700000	70.500000	75.100000	79.600000	85.600000	79.000000	784.400000
